ID,ObsType,ObsDateTime,Latitude,Longitude,Elevation,UTCOffset,LimitingMag,CloudCover,SQMReading,SQMSerial,Constellation,SkyComment,LocationComment,Country
268453,Globe at Night,2012-10-22 01:30:00+00:00,19.1038,72.8552,12.2385,-330,1,50,,,Pegasus,,,India
262064,Globe at Night,2012-05-21 15:53:00+00:00,-31.916,-58.1091,28.2885,224,4,-1,,,Crux,esta parcialmente despejado.,"Zona rural, sin iluminacion luminica publica, con una cantera al lado.",Uruguay
205349,Globe at Night,2012-10-18 14:00:00+00:00,42.3668,-71.3031,57.0584,300,-9999,75,,,Pegasus,"The sky was super cloudy, covering more than 1/2 of the sky. I could barely see any stars but when I did it was only about one or two. It was very cold outside. There were some lights near.","Suburban, some christmas tree lights near, no snow, very cold, super cloudy.",United States - Massachusetts
190040,Globe at Night,2012-12-20 01:30:00+00:00,-29.6664,17.8953,924.96,-120,4,-1,20.66,5739,Grus,"Clear cloud 0/10, wind 2/10, dew 0/10","Urban, edge of town",South Africa
188112,Globe at Night,2012-08-19 01:00:00+00:00,-33.6631,20.0122,492.22,-120,6,-1,21.79,5739,Sagittarius,"Clear, w 0/10, 4.0°C","Rural, 40 km to nearest town",South Africa
187727,Globe at Night,2012-09-16 00:00:00+00:00,-33.8906,18.6532,112.34,-120,6,-1,21.62,5739,Sagittarius,"Clear, wind 3/10 ESE, 12°C","Rural, farming area 30 km from nearest town",South Africa
117598,Globe at Night,2012-04-20 18:40:00+00:00,-30.5983,-71.2003,238.52,180,5,-1,19.18,5181,Crux,cielo completamente despejado.,"observación hecha en el patio de mi casa, no se ven postes ni luces cercanas, en medio de población.",Chile
117597,Globe at Night,2012-04-20 19:30:00+00:00,-30.5983,-71.2003,238.52,180,4,-1,18.42,5181,Crux,cielos despejados totalmente.,"Zona urbana, alrededor hay aproximadamente 8 postes, población en las cercanías.",Chile
117596,Globe at Night,2012-04-18 18:35:00+00:00,-31.1828,-71.0028,904.41,180,5,-1,14.08,4565,Crux,,,Chile
117595,Globe at Night,2012-04-18 18:28:00+00:00,-31.1842,-71.0014,908.33,180,5,-1,13.98,4565,Crux,,,Chile
117594,Globe at Night,2012-04-20 18:25:00+00:00,-31.1864,-71.0012,919.46,180,7,-1,20.38,4565,Crux,,,Chile
117593,Globe at Night,2012-04-19 19:10:00+00:00,-23.6844,-70.3819,506.57,180,3,-1,15.32,4513,Crux,El cielo estaba claro no habìan  nubes,Urbano,Chile
117592,Globe at Night,2012-04-19 17:53:00+00:00,-23.6772,-70.3818,425.74,180,3,-1,16.83,4513,Crux,El cielo estaba claro,Urbano,Chile
117591,Globe at Night,2012-04-11 17:00:00+00:00,32.3229,-110.978,757.64,420,2,50,18.2,4233,Leo,Few scatted clouds.,"Lights from retail stores and major intersection.,",United States - Arizona
117590,Globe at Night,2012-04-11 14:01:00+00:00,32.3231,-110.996,733.17,420,4,75,18.1,4233,Leo,High scattered clouds.,Rural_Suburbs.  Several streetlights at in tersection.,United States - Arizona
117589,Globe at Night,2012-03-13 13:28:00+00:00,32.2979,-110.98,704.99,420,5,-1,18.2,4233,Leo,Sky clear.,"Street lights, parking lot lights, and heavy traffic. Urban.",United States - Arizona
117588,Globe at Night,2012-03-16 00:51:00+00:00,52.3564,13.5758,36.56,-60,7,-1,23.51,3206,Orion,,suburban,Germany
117587,Globe at Night,2012-03-15 20:54:00+00:00,52.5124,13.3744,35.09,-60,3,-1,16.8,3206,Orion,Mist,park in the city centre,Germany
117586,Globe at Night,2012-01-17 15:37:00+00:00,41.701,-72.3197,192.43,300,6,-1,20.22,3304,Orion,no clouds even in sight,,United States - Connecticut
117585,Globe at Night,2012-01-14 16:00:00+00:00,41.7208,-72.3239,158.79,300,-9999,-1,11.13,,Orion,,,United States - Connecticut
97178,Bio-Blitz,2012-08-12 19:26:00+00:00,40.3671,-105.562,2399.66,360,-9999,-1,21.16,5963,Cygnus,Light dome from Estes Park/Front Range extends 40* above horizon.  Clear with no clouds but poor transparency.  Milky Way clear overhead but lost in light dome to east.,,United States - Colorado
97177,Bio-Blitz,2012-08-12 19:06:00+00:00,40.3749,-105.603,2549.23,360,-9999,-1,21.44,5963,Cygnus,"Milky Way brilliant overhead.  Clear, no clouds, but poor transparency.",,United States - Colorado
97176,Bio-Blitz,2012-08-12 18:07:00+00:00,40.3971,-105.677,3377.39,360,-9999,-1,21.5,5963,Cygnus,"Clear, no clouds.  Light dome from Estes Park/Front Range extends 30* above horizon.  Poor transparency with some haze.",,United States - Colorado
97175,Bio-Blitz,2012-08-12 17:34:00+00:00,40.4323,-105.733,3259.98,360,-9999,-1,21.68,5963,Cygnus,"Clear, no clouds, but windy.  Light dome from Estes Park/Front Range visible 20* above horizon.  Poor transparency.",,United States - Colorado
97174,Bio-Blitz,2012-08-12 16:46:00+00:00,40.3956,-105.713,3575.91,360,-9999,-1,21.68,5963,Cygnus,"Clear, no clouds.  Estes Park light dome visible 20* above horizon.",46*F with strong wind.,United States - Colorado
97173,Bio-Blitz,2012-08-12 15:54:00+00:00,40.3816,-105.601,2645.92,360,-9999,-1,21.52,5963,Cygnus,"Clear, no clouds.  Light dome from Estes Park in the east, extends 30* above horizon.",Meadow on slope.  Light breeze.,United States - Colorado
97172,Bio-Blitz,2012-08-12 18:25:00+00:00,40.1099,-105.125,1542.03,360,-9999,-1,19.75,6285,Cygnus,"Hazy(both smoke and moisture). Cloudless, no wind, light dome to south blocked by trees",,United States - Colorado
97171,Bio-Blitz,2012-08-12 17:55:00+00:00,40.1559,-105.038,1505.6,360,-9999,-1,19.57,6285,Cygnus,"No wind, cloudless, light dome to south",,United States - Colorado
97170,Bio-Blitz,2012-08-12 17:30:00+00:00,40.2653,-105.09,1551.33,360,-9999,-1,20.25,6285,Cygnus,Cloudless. Light domes to south and north. No wind. Smokey Haze,,United States - Colorado
97169,Bio-Blitz,2012-08-12 17:00:00+00:00,40.1939,-105.098,1532.32,360,-9999,-1,19.02,6285,Cygnus,"Cloudless, no wind smokey haze","Well Lighted park, lots of glare and nearby trees, casting shadows.",United States - Colorado
97168,Bio-Blitz,2012-08-12 16:47:00+00:00,40.1769,-105.1,1523.56,360,-9999,-1,18.83,6285,Cygnus,"Cloudless, No Wind, Smokey Haze",,United States - Colorado
97167,Bio-Blitz,2012-08-12 16:28:00+00:00,40.1544,-105.1,1505.58,360,-9999,-1,18.72,6285,Cygnus,"Cloudless, No wing. Light dome to south barley visible from glare of lights. Smokey haze",Bright lights from dealership casts clear shadow.,United States - Colorado
97166,Bio-Blitz,2012-08-12 16:11:00+00:00,40.1332,-105.103,1513.28,360,-9999,-1,19.32,6285,Cygnus,"Cloudless, light dome to the south, no wind. Smokey haze from wildfires",,United States - Colorado
97165,Bio-Blitz,2012-08-12 15:55:00+00:00,40.1022,-105.105,1542.63,360,-9999,-1,19.67,6285,Cygnus,"Cloudless, light dome to the south, no wind. 77 degrees. Smokey haze from wildfires",,United States - Colorado
97164,Bio-Blitz,2012-08-12 17:20:00+00:00,39.8362,-105.053,1623.52,360,-9999,-1,18.15,5974,Cygnus,,"Clear, Suburban park, streetlights from nearby road",United States - Colorado
97163,Bio-Blitz,2012-08-12 17:40:00+00:00,39.8037,-105.041,1595.92,360,-9999,-1,18.21,5974,Cygnus,,"Clear, Suburban/urban area. Security lights on surrounding buildings throw a lot of glare",United States - Colorado
97162,Bio-Blitz,2012-08-12 17:02:00+00:00,39.8754,-105.061,1641.22,360,-9999,-1,18.44,5974,Cygnus,,"Suburban Open Space, some streetlights from nearby road",United States - Colorado
97161,Bio-Blitz,2012-08-12 17:58:00+00:00,39.7822,-105.048,1630.48,360,-9999,-1,18.09,5974,Cygnus,,"Clear, Urban park streetlights on surrounding roads are somewhat shielded by trees",United States - Colorado
97160,Bio-Blitz,2012-08-12 16:38:00+00:00,39.9213,-105.08,1633.54,360,-9999,-1,18.41,5974,Cygnus,,"Suburban, many lights in vicinity",United States - Colorado
97159,Bio-Blitz,2012-08-12 17:49:00+00:00,40.0717,-105.231,1583.76,360,-9999,-1,19.82,5962,Cygnus,"Clear Skies, no lights",,United States - Colorado
97158,Bio-Blitz,2012-08-12 17:39:00+00:00,40.0425,-105.244,1617.92,360,-9999,-1,19.45,5962,Cygnus,Clear Skies,,United States - Colorado
97157,Bio-Blitz,2012-08-12 17:23:00+00:00,40.039,-105.263,1629.78,360,-9999,25,19.2,5962,Cygnus,A few Clouds overhead~10% coverage,,United States - Colorado
97156,Bio-Blitz,2012-08-12 17:09:00+00:00,40.026,-105.287,1645.82,360,-9999,-1,19.07,5962,Cygnus,,"South of ballfield, west of hospital, sodium lights to north",United States - Colorado
97155,Bio-Blitz,2012-08-12 16:48:00+00:00,40.0037,-105.245,1614.78,360,-9999,-1,18.97,5962,Cygnus,No clouds,Northwest of pavillion on playground. One bright light to the west on building. Two lights on hoover st.,United States - Colorado
97154,Bio-Blitz,2012-08-12 16:32:00+00:00,40.0019,-105.21,1611.89,360,-9999,25,19.33,5962,Cygnus,"Clear Overhead, partly cloudy to southeast. On track near shed, sodium light to the north",,United States - Colorado
97153,Bio-Blitz,2012-08-12 16:09:00+00:00,39.9739,-105.142,1644.34,360,-9999,50,18.1,5962,Cygnus,"Partly Cloudy, 40%, brightly lit. Aiming unit between clouds",,United States - Colorado
97152,Bio-Blitz,2012-08-12 15:46:00+00:00,39.9726,-105.115,1630.82,360,-9999,25,19.05,5962,Cygnus,"light clouds to southeast, no clouds overhead",,United States - Colorado
97151,Bio-Blitz,2012-08-12 18:16:00+00:00,40.0044,-105.074,1573.72,360,-9999,-1,19.33,5962,Cygnus,"No Clouds, no lights, Haze obscures stars",,United States - Colorado
97150,Bio-Blitz,2012-08-13 17:49:00+00:00,40.0717,-105.231,1583.76,360,-9999,-1,19.82,5962,Cygnus,"Clear Skies, no lights",,United States - Colorado
97149,Bio-Blitz,2012-08-13 17:39:00+00:00,40.0425,-105.244,1617.92,360,-9999,-1,19.45,5962,Cygnus,Clear Skies,,United States - Colorado
97148,Bio-Blitz,2012-08-13 17:23:00+00:00,40.039,-105.263,1629.78,360,-9999,25,19.2,5962,Cygnus,A few Clouds overhead~10% coverage,,United States - Colorado
97147,Bio-Blitz,2012-08-13 17:09:00+00:00,40.026,-105.287,1645.82,360,-9999,-1,19.07,5962,Cygnus,,"South of ballfield, west of hospital, sodium lights to north",United States - Colorado
97146,Bio-Blitz,2012-08-13 16:48:00+00:00,40.0037,-105.245,1614.78,360,-9999,-1,18.97,5962,Cygnus,No clouds,Northwest of pavillion on playground. One bright light to the west on building. Two lights on hoover st.,United States - Colorado
97145,Bio-Blitz,2012-08-13 16:32:00+00:00,40.0019,-105.21,1611.89,360,-9999,25,19.33,5962,Cygnus,"Clear Overhead, partly cloudy to southeast. On track near shed, sodium light to the north",,United States - Colorado
97144,Bio-Blitz,2012-08-13 16:09:00+00:00,39.9739,-105.142,1644.34,360,-9999,50,18.1,5962,Cygnus,"Partly Cloudy, 40%, brightly lit. Aiming unit between clouds",,United States - Colorado
97143,Bio-Blitz,2012-08-13 15:46:00+00:00,39.9726,-105.115,1630.82,360,-9999,25,19.05,5962,Cygnus,"light clouds to southeast, no clouds overhead",,United States - Colorado
97142,Bio-Blitz,2012-08-13 16:32:00+00:00,40.0019,-105.21,1611.89,360,-9999,25,19.33,5962,Cygnus,"Clear Overhead, partly cloudy to southeast. On track near shed, sodium light to the north",,United States - Colorado
97141,Bio-Blitz,2012-08-13 16:09:00+00:00,39.9739,-105.142,1644.34,360,-9999,50,18.1,5962,Cygnus,"Partly Cloudy, 40%, brightly lit. Aiming unit between clouds",,United States - Colorado
97140,Bio-Blitz,2012-08-13 15:46:00+00:00,39.9726,-105.115,1630.82,360,-9999,25,19.05,5962,Cygnus,"light clouds to southeast, no clouds overhead",,United States - Colorado
97139,Bio-Blitz,2012-08-13 06:24:00+00:00,39.9726,-105.115,1630.82,360,-9999,-1,19.05,,Cygnus,,,United States - Colorado
97138,Bio-Blitz,2012-08-18 19:40:00+00:00,40.9061,-106.445,2954.32,360,-9999,-1,21.41,6010,Cygnus,"No clouds.  Milky Way etched above 15 deg elev.  Low light domes  SE - S horizon.  SQM #5976 21.66   SQM-L #6010 21.41  Geigenschein low, not definite E Capricornus.  Horizon glow to 15 deg alt.  M33 vis by eye.","BLM rd 2504, county rd 35, S rim of Independence Mountain, W of Cowdrey CO, N edge of N Park.  Cottonwoods, sage hillsides, ranch fields.  Few scattered farm buildings and lights of Walden in distance.    40F.",United States - Colorado
97137,Bio-Blitz,2012-08-18 18:30:00+00:00,40.6997,-106.245,2496.42,360,-9999,-1,21.25,6010,Cygnus,No clouds visible.  Milky Way near Zenith.  Front Range light dome in SE horizon.  SQM #5976 21.50   SQM-L #6010 21.25  Geigenschein difficult in E Capricornus.  Horizon glow to 15 deg elev.,"CO-14 mile 37.  Arapaho NWR overlook E of Walden CO.  Willows by streams, ranch fields.  Few scattered farm buildings and lights.    46F.",United States - Colorado
97136,Bio-Blitz,2012-08-18 18:05:00+00:00,40.5678,-106.061,2645.3,360,-9999,-1,21.16,6010,Cygnus,No clouds visible.  Milky Way near Zenith.  Mountains hide light domes.  SQM #5976 21.51   SQM-L #6010 21.16  Cas and Perseus dark neb better,"CO-14 at county rd 27 to Rand.  Willows by stream, hayfields, trees on slopes.  Few scattered farm buildings and lights.    46F.",United States - Colorado
97135,Bio-Blitz,2012-08-18 17:48:00+00:00,40.5125,-106.011,2752.12,360,-9999,-1,21.24,6010,Cygnus,No clouds visible.  Milky Way near Zenith.  Mountains hide light domes.  SQM #5976 21.47    SQM-L #6010 21.24  Cas and Perseus dark neb better,"Moose Visitor Ctr, Colo State Forest.  Willows by stream, trees on slopes.  Few scattered buildings and streetlights, parking lot lit.    44F.",United States - Colorado
97134,Bio-Blitz,2012-08-18 16:50:00+00:00,40.5208,-105.892,3131.8,360,-9999,-1,21.12,6010,Cygnus,No clouds visible.  Milky Way near Zenith.  Canyon hides light domes.  SQM #5976 21.44    SQM-L #6010 21.12,"Cameron Pass, wide spot in Poudre Canyon.  No streetlights, many trees.  Elev 10240 ft GPS, sign:  10276 ft.  44F.",United States - Colorado
97133,Bio-Blitz,2012-08-18 16:30:00+00:00,40.6044,-105.836,2737.81,360,-9999,-1,21.13,6010,Cygnus,No clouds visible.  Milky Way near Zenith.  Canyon hides light domes.  SQM #5976 21.44    SQM-L #6010 21.13,"CR-14 and Laramie River Rd in Poudre Canyon.  No streetlights, many trees.  Elev 8963 ft.  58F.",United States - Colorado
97132,Bio-Blitz,2012-08-18 16:00:00+00:00,40.7058,-105.754,2368.5,360,-9999,-1,21.32,6010,Cygnus,No clouds visible.  Milky Way near Zenith.  Canyon hides light domes.  SQM #5976 21.49    SQM #6010 21.32,"Milepost 81 in wide spot in Poudre Canyon.  No streetlights, many trees.  Elev 7723 ft.  58F.",United States - Colorado
97131,Bio-Blitz,2012-08-18 15:39:00+00:00,40.6992,-105.584,2182.0,360,-9999,-1,21.3,6010,Cygnus,No clouds visible.  Milky Way near Zenith.  Canyon hides light dome for Ft Collins.  SQM #5976 21.44   SQM #6010 21.30,"Rural Glen Echo gas stop and campground in canyon.  Few Streetlights, many trees.  Elev 7106 ft.  61F.",United States - Colorado
97130,Bio-Blitz,2012-08-11 18:30:00+00:00,40.5803,-104.62,1508.43,360,-9999,25,20.8,6010,Cygnus,"Less than 10% of sky with variable  clouds now.   Cloud brightness like Milky Way.  Greeley dome prominent  S, Ft C and Windsor dome low in W.  Scatter in SQM data, range 20.79 to 20.85","Extra site, DJL and MHL.  CR47 and CO-14.   Farm fields E of Ault CO,  NE of  Greeley CO.  Elev 4888, 20C",United States - Colorado
97129,Bio-Blitz,2012-08-11 18:14:00+00:00,40.5536,-104.721,1484.39,360,-9999,25,20.4,6010,Cygnus,"Less than 10% of sky with variable  clouds now.   Cloud brightness like Milky Way.  Greeley dome prominent  S, Ft C and Windsor dome low in W.","Extra site, DJL and MHL.  CR78 and US85.   Farm fields by Eaton CO,  N of  Greeley CO.  Elev 4816, 21C.",United States - Colorado
97128,Bio-Blitz,2012-08-11 18:00:00+00:00,40.4806,-104.716,1444.77,360,-9999,-1,19.94,6010,Cygnus,"Cold front passed, clearing with no  clouds now.  Greeley dome prominent  S, Ft C and Windsor dome W.","Extra site, DJL and MHL.  Farm fields N of  Greeley CO.  Elev 4692, 21C.",United States - Colorado
97127,Bio-Blitz,2012-08-11 17:36:00+00:00,40.48,-104.816,1461.8,360,-9999,-1,20.19,6010,Cygnus,"Cold front passed, clearing with no  clouds now.  Greeley dome S, Ft C and Windsor dome W","Extra site, DJL and MHL.  Farm fields N of Bracewell and Greeley CO.  N of Poudre Learning Center.  Elev 4747, 23C.",United States - Colorado
97126,Bio-Blitz,2012-08-11 17:22:00+00:00,40.4869,-104.907,1460.92,360,-9999,-1,19.65,6010,Cygnus,"Cold front passed, clearing with no  clouds now.  Greeley dome SE, Ft C dome NW, Windsor dome S.","Extra site, DJL and MHL.  Windsor Lake parking lane.  Residential with streetlights S, scattered homes N.  Elev 4751.  22C.",United States - Colorado
97125,Bio-Blitz,2012-08-11 17:04:00+00:00,40.4797,-105.008,1495.96,360,-9999,-1,19.69,6010,Cygnus,"Cold front passed, clearing with few dissipating clouds out of field.  Greeley dome E, Ft C dome N, Loveland dome S.","Extra site, DJL and MHL.  Gate for Fossil Ck Nat Area.  Prairie with streetlights across CR32.  Elev 4869.  22C.",United States - Colorado
97124,Bio-Blitz,2012-08-12 18:05:00+00:00,40.4073,-104.832,1477.04,360,-9999,-1,19.97,6010,Cygnus,Clear with slight haze.  Greeley light dome extends past zenith.,"Extra site, Loveland team, Greeley at west end of town US34 and 95th Ave.  Scattered lights and homes, mostly grassland N,W, S.  Elev  4870, 23C.",United States - Colorado
97123,Bio-Blitz,2012-08-12 17:40:00+00:00,40.4648,-105.053,1534.26,360,-9999,-1,19.85,6010,Cygnus,"Clear.  Ft Collins light dome N , Loveland dome S .","Extra site, Loveland team, Donath Lake E side surrounded by farm fields, no close lights.  Elev 5057, 20C.",United States - Colorado
97122,Bio-Blitz,2012-08-12 17:20:00+00:00,40.48,-105.116,1562.96,360,-9999,-1,20.05,6010,Cygnus,"Clear.  Ft Collins light dome N NE, Loveland dome S and SE.  W sky is considerably darker.","Loveland team, Coyote Ridge Natural area parking lot surrounded by prairie, no close lights.  Elev 5158, 23C.",United States - Colorado
97121,Bio-Blitz,2012-08-12 17:10:00+00:00,40.451,-105.097,1549.61,360,-9999,-1,19.66,6010,Cygnus,"Clear.  Ft Collin light dome N, Loveland dome S.  W sky is darker.","Loveland team, Taft Rd and 57th St.  North end of Loveland residential by large open fields.  Intersection brightly lit.  Elev 5116, 24C.",United States - Colorado
97120,Bio-Blitz,2012-08-12 16:52:00+00:00,40.4462,-105.073,1536.0,360,-9999,-1,19.55,6010,Cygnus,Clear,"Loveland team, Kroh Park. Grassy suburban park, many lights on including picnic shelter we avoided.  Elev 5067.  Temp 25C",United States - Colorado
97119,Bio-Blitz,2012-08-12 16:40:00+00:00,40.4301,-105.066,1518.81,360,-9999,-1,19.53,6010,Cygnus,Clear,"Loveland Team, Horseshoe Lake. Suburban open grassland.  Elev 5010.  Temp 24C",United States - Colorado
97118,Bio-Blitz,2012-08-12 16:25:00+00:00,40.4194,-105.096,1530.39,360,-9999,-1,19.36,6010,Cygnus,Clear,"Loveland Team, North Lake Park site.  Away from parking lot lights by Lake Loveland.  Lots of deciduous trees.  Elev 5048. Temp 25C",United States - Colorado
97117,Bio-Blitz,2012-08-12 16:15:00+00:00,40.4091,-105.104,1541.64,360,-9999,-1,19.38,6010,Cygnus,Clear overhead.  No clouds noted.,"Loveland Team, Van Buren School.  Surrounded by neighborhood with   streetlights, no lights in playground.  Elevation 5081 ft.  Temp 24C",United States - Colorado
97116,Bio-Blitz,2012-08-12 15:55:00+00:00,40.3647,-105.077,1539.92,360,-9999,-1,19.9,6010,Cygnus,Clear overhead.  Few scattered clouds W to N out of field,"Loveland Team, Derby Hill Park.  Surrounded by neighborhood with   streetlights, no lights in park.  Elevation 5075 ft.  Temp 24C",United States - Colorado
97115,Bio-Blitz,2012-08-12 15:40:00+00:00,40.3272,-105.094,1563.41,360,-9999,-1,20.26,6010,Cygnus,"Minimal haze did not prevent view of Longs Peak, rare clouds dissipating to South, 5 to 10 degrees across outside region of metering.  Light domes prominent for Loveland N and Longmont S, slight for Berthoud to E.","Berthoud site for Loveland survey team.  Large field on edge of town, no close streetlights.",United States - Colorado
97114,Bio-Blitz,2012-08-12 17:45:00+00:00,40.3704,-105.495,2286.85,360,-9999,-1,20.55,6009,Cygnus,"light sky dome (city lights 3/4 mile),  no clouds, no haze","School parking lot,  3  lights 100 yds away, no street lights, occasional car 1/2 mile, no trees, slight wind, 12 C",United States - Colorado
97113,Bio-Blitz,2012-08-12 17:45:00+00:00,40.3704,-105.495,2286.85,360,-9999,-1,21.3,6301,Cygnus,"light sky dome (city lights 3/4 mile),  no clouds, no haze","School parking lot,  3  lights 100 yds away, no street lights, occasional car 1/2 mile, no trees, slight wind, 12 C",United States - Colorado
97112,Bio-Blitz,2012-08-12 17:25:00+00:00,40.3799,-105.517,2300.28,360,-9999,-1,17.88,6301,Cygnus,"Moderate sky doom from nearby (1/2 mile) shoping center, Milky looking sky, no clouds, slight haze","street light about 60 yds, many trees 20 yds away, occasional car, across from Stanley Hotel  14 C",United States - Colorado
97111,Bio-Blitz,2012-08-12 17:25:00+00:00,40.3799,-105.517,2300.28,360,-9999,-1,20.38,6009,Cygnus,"Moderate sky doom from nearby (1/2 mile) shoping center, Milky looking sky, no clouds, slight haze","60 yds, many trees 20 yds away, occasional car, across from Stanley Hotel  14 C",United States - Colorado
97110,Bio-Blitz,2012-08-12 17:05:00+00:00,40.3807,-105.472,2248.42,360,-9999,-1,20.86,6009,Cygnus,"very clear, very dark, no sky dome, no clouds. Could see M13","very dark spot, dim motel lights (8) 200 yds,  no trees, occasional car lights 14 C",United States - Colorado
97109,Bio-Blitz,2012-08-12 17:05:00+00:00,40.3807,-105.472,2248.42,360,-9999,-1,21.91,6301,Cygnus,"very clear, very dark, no sky dome, no clouds. Could see M13","very dark spot, dim motel lights (8) 200 yds,  no trees, occasional car lights 14 C",United States - Colorado
97108,Bio-Blitz,2012-08-12 16:45:00+00:00,40.4266,-105.383,2402.57,360,-9999,-1,18.84,6301,Cygnus,"very clear, very dark, no sky dome, no clouds. Could see M13","3 house, 10 to 12  lights, about 50 yds away, no trees, occasional car lights  16 C",United States - Colorado
97107,Bio-Blitz,2012-08-12 16:45:00+00:00,40.4266,-105.383,2402.57,360,-9999,-1,21.06,6009,Cygnus,"very clear, very dark, no sky dome, no clouds. Could see M13","3 house, 10 to 12  lights, about 50 yds away, no trees, occasional car lights  16 C",United States - Colorado
97106,Bio-Blitz,2012-08-11 18:00:00+00:00,40.4324,-105.34,1875.02,360,-9999,-1,20.77,6009,Cygnus,"upper glow from street light, a few house lights 1/4 mile away. no sky dome, no clouds","Bad street light 30 yds, used trailer house for shield, many trees, occasional car.  17 C",United States - Colorado
97105,Bio-Blitz,2012-08-12 16:25:00+00:00,40.4324,-105.34,1875.02,360,-9999,-1,19.81,6301,Cygnus,"upper glow from street light, a few house lights 1/4 mile away. no sky dome, no clouds","Bad street light 30 yds, used trailer house for shield, many trees, occasional car.  17 C",United States - Colorado
97104,Bio-Blitz,2012-08-12 15:45:00+00:00,40.4141,-105.153,1555.86,360,-9999,-1,20.19,6009,Cygnus,"Clear Sky, Large sky dome from Fort Collins & Loveland covering 1/3 of East sky","No Houses, No Trees, No lights,Calm Winds, Dry, 18 C.",United States - Colorado
97103,Bio-Blitz,2012-08-14 07:21:00+00:00,40.4141,-105.153,1555.86,360,-9999,-1,20.15,6009,Cygnus,"Clear Sky, Large sky dome from Fort Collins & Loveland covering 1/3 of East sky","No Houses, No Trees, No lights,Calm Winds, Dry",United States - Colorado
97102,Bio-Blitz,2012-08-12 15:45:00+00:00,40.4141,-105.153,1555.86,360,-9999,-1,21.27,6301,Cygnus,"Clear Sky, Large sky dome from Fort Collins & Loveland covering 1/3 of East sky","No Houses, No Trees, No lights,Calm Winds, Dry",United States - Colorado
97101,Bio-Blitz,2012-08-12 17:35:00+00:00,40.654,-105.053,1569.3,360,-9999,-1,20.5,5975,Cygnus,"Light haze in all directions  No clouds  50+ degree light dome S = Ft. Collins, CO",Rural  scattered porch & yard lights S  flashing red warning lights on radio towers to the north  Some trees SE - about 50 feet from location,United States - Colorado
97100,Bio-Blitz,2012-08-12 17:15:00+00:00,40.6887,-105.075,1603.7,360,-9999,-1,20.82,5975,Cygnus,light haze in all directions  No clouds  35 degree light dome S = Ft. Collins,Rural  subdivision within 1 mile to the SE but only 4 - 5 porch lights on  several lights 1 mile to the W - mercury vapor.,United States - Colorado
97099,Bio-Blitz,2012-08-12 17:00:00+00:00,40.7175,-105.071,1604.2,360,-9999,-1,20.96,5975,Cygnus,"Some haze in all directions  No Clouds  less than 5 degree light dome N = Cheyenne, WY  20+ degree light dome S = Ft. Collins, CO",Rural  20+ lights within 1 mile - porch lights & mercury vapor mix,United States - Colorado
97098,Bio-Blitz,2012-08-12 16:38:00+00:00,40.7725,-105.125,1668.52,360,-9999,-1,21.27,5975,Cygnus,"light haze all directions  No clouds  5 degree light dome NE = Cheyenne, WY  15 degree light dome SSE = Ft. Collins, CO",Rural  one mercury vapor yard light ~ 1 mile to the west,United States - Colorado
97097,Bio-Blitz,2012-08-12 16:23:00+00:00,40.8192,-105.076,1705.71,360,-9999,-1,21.33,5975,Cygnus,"Some light haze in all directions  No clouds  less than 10 degree light dome N = Cheyenne, WY  approx. 20 degree light dome S = Ft. Collins, CO","Rural, scattered mercury vapor lights 3 or 4 within 1 mile.  Red & white flashing warning lights on Rawhide Powerplant to the east & flashing redwarning lights on radio broadcast antennas to the south.",United States - Colorado
97096,Bio-Blitz,2012-08-12 15:46:00+00:00,40.9594,-105.091,1933.79,360,-9999,-1,21.43,5975,Cygnus,"Clear with some lower level haze in every direction.  10 degree light dome to NNE = Cheyenne, WY    15 degree light dome to S = Fort Collins, CO",Rural Location at South road gate to Soapstone Prairie Natural Area.  More than a mile to nearest lights.,United States - Colorado
97095,Bio-Blitz,2012-08-14 02:43:00+00:00,32.4783,-111.089,867.95,420,-9999,25,,,Cygnus,,,United States - Arizona
97094,Bio-Blitz,2012-08-12 17:58:00+00:00,39.7815,-105.049,1630.73,360,-9999,-1,18.2,6012,Cygnus,,"Urban park, streetlights on surrounding roads somewhat shielded by trees.",United States - Colorado
97093,Bio-Blitz,2012-08-12 17:40:00+00:00,39.8049,-105.041,1595.89,360,-9999,-1,18.21,6012,Cygnus,,In suburban/urban area. Security lights on surrounding buildings throwing lots of glare,United States - Colorado
97092,Bio-Blitz,2012-08-12 17:20:00+00:00,39.8356,-105.052,1621.5,360,-9999,-1,18.38,6012,Cygnus,,"Suburban park, streetlights from nearby roads",United States - Colorado
97091,Bio-Blitz,2012-08-12 17:02:00+00:00,39.8759,-105.059,1637.53,360,-9999,-1,18.46,6012,Cygnus,Less than 10% patchy clouds,Suburban open space; some streetlights from nearby road,United States - Colorado
97090,Bio-Blitz,2012-08-12 16:38:00+00:00,39.9214,-105.078,1630.77,360,-9999,25,18.53,6012,Cygnus,light patchy clouds,Suburban; many lights in vicinity,United States - Colorado
97089,Bio-Blitz,2012-08-12 16:15:00+00:00,40.4813,-105.225,1658.68,360,-9999,-1,20.83,6300,Cygnus,"Sky glow to north, east, and south. Dark to west. Fairly dark and clear overall.","parking lot of Bobcat Ridge Natural Area. Sky glow to north, east, and south. West dark. SQM measured temperature as 19 C; SQML measured 24 C.",United States - Colorado
97088,Bio-Blitz,2012-08-12 16:32:00+00:00,40.4813,-105.225,1658.68,360,-9999,-1,20.91,6300,Cygnus,Sky glow to east and south on horizon. Dark to the west.,sky glow to east and south. Inside natural area. SQM measured temperature as 18 C; SQML measured 21 C.,United States - Colorado
97087,Bio-Blitz,2012-08-12 18:05:00+00:00,40.3453,-105.101,1578.39,360,-9999,-1,20.22,6300,Cygnus,glow along horizon.,"on the street in front of our house. neighborhood lawn lights nearby, open field to the north.  SQM measured temperature at 22 C, SQML measured 23 C.",United States - Colorado
97086,Bio-Blitz,2012-08-11 18:00:00+00:00,40.4141,-105.153,1555.86,360,-9999,-1,21.27,6301,Cygnus,"Clear Sky, Large sky dome from Fort Collins & Loveland covering 1/3 of East sky","Devils Backbone Open Space. No Houses, No Trees, No lights,Calm Winds, Dry",United States - Colorado
97085,Bio-Blitz,2012-08-12 17:25:00+00:00,39.6509,-105.042,1626.27,360,-9999,-1,18.53,6011,Cygnus,"General haze. Mostly clear sky, but with occasional tiny clouds forming and dissipating; 68F; wind calm, 5:25 UT August 13th.",Bear Creek Park. Clearing along path in forest park in suburban area; streetlights blocked by tall trees; distant house lights to east; elevation 5362 ft.,United States - Colorado
97084,Bio-Blitz,2012-08-12 16:55:00+00:00,39.7005,-105.019,1631.03,360,-9999,-1,18.1,6011,Cygnus,"General haze, but no clouds; very large skyglow areas to north and east; wind calm, 60F, 4:55 UT, Aug 13th.",Suburban park surrounded by trees and one-story houses; several cut-off streetlights in the distance; elevation 5252 ft.,United States - Colorado
97083,Bio-Blitz,2012-08-12 16:35:00+00:00,39.7348,-105.028,1599.61,360,-9999,25,17.7,6011,Cygnus,"Waited for east-west wave clouds to break up. General haze, but mostly clear, with very small patchy clouds overhead and to east; wind calm, 70F, 4:35 UT.","Paco Sanchez Park; urban neighborhood, with Denver skyline visible through trees to NE; several full-cutoff street lights; bright porchlights to south; power lines overhead.",United States - Colorado
97082,Bio-Blitz,2012-08-12 16:53:00+00:00,40.4827,-105.229,1668.68,360,-9999,-1,20.91,6300,Cygnus,sky glow in eastern and southern sky.,"sky glow to east and south. SQM measured temperature at 15 C, SQML measured 18 C.",United States - Colorado
97081,Bio-Blitz,2012-08-12 16:00:00+00:00,40.4873,-105.21,1641.27,360,-9999,-1,20.73,6300,Cygnus,sky glow in eastern sky.,"2 homes with porch lights on, 2 street lights (1 partially hidden from view in tree, 1 low to the ground). SQM measured temperature at 23 C, SQML measured at 25 C.",United States - Colorado
97080,Bio-Blitz,2012-08-12 15:45:00+00:00,40.5082,-105.23,1664.97,360,-9999,-1,20.87,6300,Cygnus,just a few faint cirrus clouds. sky glod from the east.,house with porch lights on across the field; sky glow from Fort Collins to the east. SQM measured temperature at 23C; SQML measured 25.,United States - Colorado
97079,Bio-Blitz,2012-08-12 18:16:00+00:00,40.4803,-105.117,1564.17,360,-9999,25,20.25,6006,Cygnus,"Haze and some increasing clouds. High Cirrus may affect SQM reading at zenith.  Milky way visible from saggitarius to cassiopeia, star clouds and great rift visible. Light dome of Fort Collins, Greely, Loveland all visible.","Rural location, only some direct glare from scattered houses. No obstructions.",United States - Colorado
97078,Bio-Blitz,2012-08-12 18:24:00+00:00,40.6087,-105.063,1516.97,360,-9999,25,19.88,6006,Cygnus,"Some hze in sky is reducing transparency. Increasing clouds to the south and west, but still mostly clear skies. Light Dome from Fort Collins is dominant to the southwest. Milky way is visible as a light band, but no details are dicernable","Suburban developments, with at least 10 streetlights visible from Bramblebush and Willox",United States - Colorado
97077,Bio-Blitz,2012-08-12 17:27:00+00:00,40.6107,-105.155,1597.7,360,-9999,-1,20.58,6006,Cygnus,"Transparency was pretty good, not great. Haze exaggerated light domes slightly. No clouds though.Light Dome of Fort Collins dominated the southern horizon.Some direct glare to the south from the CIRA CSU campus.  Mily way was easily seen",Rural location at Reservoir Ridge. Only a few houses near this open space. No immediate developments to the west or north,United States - Colorado
97076,Bio-Blitz,2012-08-12 18:52:00+00:00,39.5619,-105.082,1689.43,360,-9999,-1,19.27,6011,Cygnus,"General haze. Clear sky except for small cloud to southwest (out of field of view); light domes from northwest, east to south; calm winds, 67F; 6:52 UT, August 13th.","Wadsworth & Payne; open space trailhead; field to south, condos bordering street to north; some streetlights; busy highway close-by to west; Interstate intersection several blocks to south; large state park & reservoir beyond that; elevation 5541.",United States - Colorado
97075,Bio-Blitz,2012-08-12 18:35:00+00:00,39.4954,-105.092,1675.53,360,-9999,-1,19.88,6011,Cygnus,"General haze. Clear, with calm winds. Some sky glow to north and northeast; small patch to southeast; 70F, 6:35 UT, Aug 13th.","South of Chatfield Lake, rural park, but with lights of Lockheed-Martin Waterton facility over ridge to the west. Small trees and shrubs; full cut-off street lights nearby. Elevation 5493 ft.",United States - Colorado
97074,Bio-Blitz,2012-08-12 17:54:00+00:00,39.6125,-105.037,1642.27,360,-9999,-1,18.67,6011,Cygnus,"Clear sky, calm winds, 71F. Sky glow to north, east, and southeast. 5:54 UT, Aug 13th.",Wynetka Ponds. Suburban park; numerous street lights and building lights below to the east and south.,United States - Colorado
97073,Bio-Blitz,2012-08-12 16:25:00+00:00,39.6509,-105.042,1626.27,360,-9999,-1,18.53,6011,Cygnus,"General haze. Mostly clear sky, but with occasional tiny clouds forming and dissipating; 68F; wind calm; 5:25UT, Aug 13th.",Clearing in forest park in suburban area; streetlights blocked by trees; distant house lights. Elevation 5362.,United States - Colorado
97072,Bio-Blitz,2012-08-12 14:55:00+00:00,39.7005,-105.019,1631.03,360,-9999,-1,18.1,6011,Cygnus,"General haze; no clouds; large skyglow to north and east; wind calm, 69F, 4:55 UT.",Suburban park surrounded by trees and 1-story houses; several cutoff street lights in distance; elevation 5352 ft.,United States - Colorado
97071,Bio-Blitz,2012-08-12 14:35:00+00:00,39.7348,-105.028,1599.61,360,-9999,25,17.7,6011,Cygnus,"General smokey haze; mostly clear, with very small patchy clouds overhead and to east; wind calm; 70F; 4:35 UT.","Paco Sanchez Park; urban, with Denver skyline visible through trees to NE; several full-cutoff street lights; bright porchlights to S; power lines overhead.",United States - Colorado
97070,Bio-Blitz,2012-08-13 15:40:00+00:00,40.3272,-105.094,1563.41,360,-9999,-1,20.26,6010,Cygnus,Dome n and s,Clear sky. Bortle 5,United States - Colorado
97069,Bio-Blitz,2012-08-15 14:29:00+00:00,32.2333,-110.948,746.34,420,-9999,25,,,Cygnus,,,United States - Arizona
97068,Bio-Blitz,2012-08-13 12:28:00+00:00,32.2333,-110.948,746.34,420,-9999,25,,,Cygnus,,,United States - Arizona
97067,Bio-Blitz,2012-10-21 13:20:00+00:00,32.2333,-110.947,746.55,420,-9999,-1,,,Cygnus,sdfds,sdfs,United States - Arizona
97066,Globe at Night,2012-04-30 03:33:00+00:00,52.9729,18.694,37.66,-120,6,-1,20.05,,Orion,,,Poland
97065,Globe at Night,2012-04-30 03:28:00+00:00,53.0611,18.6413,78.87,-120,6,-1,20.04,,Orion,,,Poland
97064,Globe at Night,2012-04-30 03:24:00+00:00,53.0471,18.7027,69.88,-120,5,-1,19.47,,Orion,,,Poland
97063,Globe at Night,2012-04-29 03:39:00+00:00,53.0516,18.6184,71.99,-120,5,-1,19.8,,Orion,,,Poland
97062,Globe at Night,2012-04-29 03:32:00+00:00,53.0332,18.6006,65.0,-120,5,-1,18.92,,Orion,,,Poland
97061,Globe at Night,2012-04-29 03:29:00+00:00,53.0361,18.6354,62.42,-120,5,-1,19.08,,Orion,,,Poland
97060,Globe at Night,2012-04-29 03:20:00+00:00,53.0272,18.6147,61.49,-120,5,-1,18.99,,Orion,,,Poland
97059,Globe at Night,2012-04-29 03:15:00+00:00,53.0209,18.5964,60.97,-120,5,-1,18.76,,Orion,,,Poland
97058,Globe at Night,2012-04-29 03:07:00+00:00,53.017,18.614,58.0,-120,4,-1,18.59,,Orion,,,Poland
97057,Globe at Night,2012-04-29 03:00:00+00:00,53.0122,18.5975,51.78,-120,4,-1,18.55,,Orion,,,Poland
97056,Globe at Night,2012-04-29 03:40:00+00:00,52.9943,18.681,48.21,-120,5,-1,19.73,,Orion,,,Poland
97055,Globe at Night,2012-04-28 03:29:00+00:00,53.0249,18.5254,42.11,-120,5,-1,19.7,,Orion,,,Poland
97054,Globe at Night,2012-04-28 03:20:00+00:00,53.0453,18.5436,64.86,-120,6,-1,20.04,,Orion,,,Poland
97053,Globe at Night,2012-04-28 03:14:00+00:00,52.996,18.6146,48.52,-120,5,-1,19.2,,Orion,,,Poland
97052,Globe at Night,2012-04-28 03:10:00+00:00,53.0051,18.6298,38.32,-120,5,-1,19.04,,Orion,,,Poland
97051,Globe at Night,2012-04-28 03:00:00+00:00,52.985,18.6829,52.06,-120,5,-1,19.95,,Orion,,,Poland
97050,Globe at Night,2012-04-28 02:53:00+00:00,53.0339,18.6517,62.32,-120,5,-1,19.15,,Orion,,,Poland
97049,Globe at Night,2012-04-28 02:49:00+00:00,53.0539,18.6684,77.97,-120,5,-1,19.6,,Orion,,,Poland
97048,Globe at Night,2012-04-28 02:40:00+00:00,53.0361,18.6355,62.42,-120,5,-1,19.08,,Orion,,,Poland
97047,Globe at Night,2012-04-24 01:49:00+00:00,53.004,18.4959,33.13,-120,6,-1,20.1,,Orion,,,Poland
97046,Globe at Night,2012-04-24 01:40:00+00:00,52.9991,18.6618,47.53,-120,5,-1,19.48,,Orion,,,Poland
97045,Globe at Night,2012-04-24 01:30:00+00:00,53.0045,18.6689,37.56,-120,5,-1,19.6,,Orion,,,Poland
97044,Globe at Night,2012-04-24 01:25:00+00:00,53.0059,18.6468,41.69,-120,5,-1,19.35,,Orion,,,Poland
97043,Globe at Night,2012-04-24 01:18:00+00:00,52.9951,18.637,47.55,-120,5,-1,19.22,,Orion,,,Poland
97042,Globe at Night,2012-04-24 01:10:00+00:00,52.9929,18.63,49.41,-120,5,-1,19.18,,Orion,,,Poland
97041,Globe at Night,2012-04-24 01:00:00+00:00,52.9873,18.6103,51.3,-120,5,-1,19.46,,Orion,,,Poland
97040,Globe at Night,2012-04-24 00:53:00+00:00,52.9874,18.5926,54.07,-120,5,-1,19.28,,Orion,,,Poland
97039,Globe at Night,2012-04-24 00:47:00+00:00,52.9807,18.5717,54.47,-120,5,-1,19.56,,Orion,,,Poland
97038,Globe at Night,2012-04-24 00:34:00+00:00,53.0,18.5321,34.0,-120,6,-1,20.12,,Orion,,,Poland
97037,Globe at Night,2012-04-24 00:24:00+00:00,52.9997,18.5462,35.08,-120,5,-1,19.84,,Orion,,,Poland
97036,Globe at Night,2012-04-24 00:22:00+00:00,52.9936,18.5467,33.52,-120,5,-1,19.82,,Orion,,,Poland
97035,Globe at Night,2012-04-24 00:15:00+00:00,52.9974,18.5761,34.48,-120,5,-1,19.44,,Orion,,,Poland
97034,Globe at Night,2012-04-24 00:13:00+00:00,52.9948,18.5806,36.73,-120,5,-1,19.28,,Orion,,,Poland
97033,Globe at Night,2012-04-24 00:07:00+00:00,52.9973,18.5921,35.91,-120,5,-1,19.04,,Orion,,,Poland
97032,Globe at Night,2012-04-21 03:38:00+00:00,53.0381,18.5986,67.33,-120,5,-1,19.02,,Orion,,,Poland
97031,Globe at Night,2012-04-21 03:35:00+00:00,53.0417,18.6068,70.08,-120,5,-1,19.07,,Orion,,,Poland
97030,Globe at Night,2012-04-21 03:23:00+00:00,53.0265,18.6262,60.12,-120,5,-1,18.74,,Orion,,,Poland
97029,Globe at Night,2012-04-21 03:08:00+00:00,52.9954,18.7007,36.87,-120,5,-1,20.0,,Orion,,,Poland
97028,Globe at Night,2012-04-21 03:03:00+00:00,52.9908,18.7068,40.86,-120,5,-1,19.97,,Orion,,,Poland
97027,Globe at Night,2012-04-21 02:54:00+00:00,53.0039,18.7122,45.2,-120,6,-1,20.14,,Orion,,,Poland
97026,Globe at Night,2012-04-21 02:47:00+00:00,53.0075,18.6911,36.21,-120,5,-1,19.8,,Orion,,,Poland
97025,Globe at Night,2012-04-21 02:41:00+00:00,53.0181,18.6912,71.2,-120,5,-1,19.47,,Orion,,,Poland
97024,Globe at Night,2012-04-21 02:29:00+00:00,53.0225,18.7167,72.27,-120,6,-1,20.02,,Orion,,,Poland
97023,Globe at Night,2012-04-21 02:15:00+00:00,53.0378,18.7152,63.0,-120,5,-1,19.56,,Orion,,,Poland
97022,Globe at Night,2012-04-22 01:56:00+00:00,53.0486,18.7181,78.13,-120,5,-1,19.72,,Orion,,,Poland
97021,Globe at Night,2012-04-22 01:47:00+00:00,53.0478,18.6837,67.94,-120,5,-1,19.5,,Orion,,,Poland
97020,Globe at Night,2012-04-22 01:37:00+00:00,53.0367,18.6681,64.59,-120,5,-1,19.22,,Orion,,,Poland
97019,Globe at Night,2012-04-15 00:46:00+00:00,53.0445,18.5989,70.56,-120,5,-1,19.2,,Orion,,,Poland
97018,Globe at Night,2012-04-15 00:44:00+00:00,53.0444,18.596,70.91,-120,5,-1,19.19,,Orion,,,Poland
97017,Globe at Night,2012-04-15 00:38:00+00:00,53.0483,18.5744,68.01,-120,5,-1,19.3,,Orion,,,Poland
97016,Globe at Night,2012-04-15 00:34:00+00:00,53.0545,18.5737,67.22,-120,5,-1,19.41,,Orion,,,Poland
97015,Globe at Night,2012-04-15 00:26:00+00:00,53.0619,18.5485,82.78,-120,6,-1,20.08,,Orion,,,Poland
97014,Globe at Night,2012-04-15 00:20:00+00:00,53.054,18.5393,64.21,-120,6,-1,20.06,,Orion,,,Poland
97013,Globe at Night,2012-04-15 00:04:00+00:00,53.0339,18.5355,48.81,-120,5,-1,19.88,,Orion,,,Poland
97012,Globe at Night,2012-04-14 23:59:00+00:00,53.0371,18.5303,54.16,-120,6,-1,20.04,,Orion,,,Poland
97011,Globe at Night,2012-04-14 23:54:00+00:00,53.0429,18.5192,49.15,-120,6,-1,20.09,,Orion,,,Poland
97010,Globe at Night,2012-04-14 23:44:00+00:00,53.0215,18.4987,33.84,-120,5,-1,18.88,,Orion,,,Poland
97009,Globe at Night,2012-04-14 23:30:00+00:00,53.0154,18.5187,37.73,-120,5,-1,19.66,,Orion,,,Poland
97008,Globe at Night,2012-04-14 23:15:00+00:00,53.0129,18.5543,35.42,-120,5,-1,18.87,,Orion,,,Poland
97007,Globe at Night,2012-04-14 23:06:00+00:00,53.0205,18.5434,40.78,-120,5,-1,19.1,,Orion,,,Poland
97006,Globe at Night,2012-04-10 00:38:00+00:00,53.0338,18.6838,63.07,-120,5,-1,19.35,,Orion,,,Poland
97005,Globe at Night,2012-04-10 00:20:00+00:00,53.0259,18.7038,68.91,-120,5,-1,19.56,,Orion,,,Poland
97004,Globe at Night,2012-04-10 00:07:00+00:00,53.0219,18.6667,66.39,-120,5,-1,19.17,,Orion,,,Poland
97003,Globe at Night,2012-04-10 00:01:00+00:00,53.0238,18.6571,65.95,-120,5,-1,19.04,,Orion,,,Poland
97002,Globe at Night,2012-04-09 23:48:00+00:00,53.0206,18.6505,49.65,-120,5,-1,19.08,,Orion,,,Poland
97001,Globe at Night,2012-04-09 23:40:00+00:00,53.0134,18.6287,54.84,-120,5,-1,18.98,,Orion,,,Poland
97000,Globe at Night,2012-04-09 23:35:00+00:00,53.0068,18.6003,34.76,-120,4,-1,18.62,,Orion,,,Poland
96999,Globe at Night,2012-04-09 23:23:00+00:00,53.0058,18.5953,32.11,-120,5,-1,18.69,,Orion,,,Poland
96998,Globe at Night,2012-04-09 23:15:00+00:00,53.0063,18.5653,36.98,-120,5,-1,19.33,,Orion,,,Poland
96997,Globe at Night,2012-04-09 23:10:00+00:00,53.0198,18.5742,52.68,-120,4,-1,18.61,,Orion,,,Poland
96996,Globe at Night,2012-04-09 23:00:00+00:00,53.0239,18.5672,46.35,-120,5,-1,18.87,,Orion,,,Poland
96995,Globe at Night,2012-04-12 02:30:00+00:00,28.6883,77.1465,220.37,-330,2,-1,,,Orion,,,India
96994,Globe at Night,2012-04-23 02:30:00+00:00,28.6883,77.1465,220.37,-330,1,-1,,,Orion,,,India
96993,Globe at Night,2012-04-11 02:30:00+00:00,28.6883,77.1465,220.37,-330,1,-1,,,Orion,,,India
96992,Globe at Night,2012-04-21 02:30:00+00:00,28.6883,77.1465,220.37,-330,2,-1,,,Orion,,,India
96991,Globe at Night,2012-04-20 02:30:00+00:00,28.6883,77.1465,220.37,-330,2,-1,,,Orion,,,India
96990,Globe at Night,2012-04-19 02:30:00+00:00,28.6883,77.1465,220.37,-330,1,-1,,,Orion,,,India
96989,Globe at Night,2012-04-17 02:30:00+00:00,28.6883,77.1465,220.37,-330,2,-1,,,Orion,,,India
96988,Globe at Night,2012-04-18 02:30:00+00:00,28.6883,77.1465,220.37,-330,2,-1,,,Orion,,,India
96987,Globe at Night,2012-04-16 02:30:00+00:00,28.6883,77.1465,220.37,-330,2,-1,,,Orion,,,India
96986,Globe at Night,2012-04-15 02:30:00+00:00,28.6883,77.1465,220.37,-330,2,-1,,,Orion,,,India
96985,Globe at Night,2012-04-14 02:30:00+00:00,28.6883,77.1465,220.37,-330,2,-1,,,Orion,,,India
96984,Globe at Night,2012-03-23 02:30:00+00:00,28.6883,77.1465,220.37,-330,2,-1,,,Orion,,,India
96983,Globe at Night,2012-03-22 02:30:00+00:00,28.6883,77.1465,220.37,-330,2,-1,,,Orion,,,India
96982,Globe at Night,2012-03-21 02:30:00+00:00,28.6883,77.1465,220.37,-330,2,-1,,,Orion,,,India
96981,Globe at Night,2012-03-20 02:30:00+00:00,28.6883,77.1465,220.37,-330,2,-1,,,Orion,,,India
96980,Globe at Night,2012-03-19 02:30:00+00:00,28.6883,77.1465,220.37,-330,2,-1,,,Orion,,,India
96979,Globe at Night,2012-03-18 02:30:00+00:00,28.6883,77.1465,220.37,-330,2,-1,,,Orion,,,India
96978,Globe at Night,2012-03-17 02:30:00+00:00,28.6883,77.1465,220.37,-330,2,-1,,,Orion,,,India
96977,Globe at Night,2012-03-16 02:30:00+00:00,28.6883,77.1465,220.37,-330,2,-1,,,Orion,,,India
96976,Globe at Night,2012-03-15 02:30:00+00:00,28.6883,77.1465,220.37,-330,2,-1,,,Orion,,,India
96975,Globe at Night,2012-03-14 02:30:00+00:00,28.6883,77.1465,220.37,-330,3,-1,,,Orion,,,India
96974,Globe at Night,2012-02-12 02:30:00+00:00,28.6883,77.1465,220.37,-330,2,-1,,,Orion,,,India
96973,Globe at Night,2012-02-13 02:30:00+00:00,28.6883,77.1465,220.37,-330,3,-1,,,Orion,,,India
96972,Globe at Night,2012-02-22 02:30:00+00:00,28.6883,77.1465,220.37,-330,2,-1,,,Orion,,,India
96971,Globe at Night,2012-02-21 02:30:00+00:00,28.6883,77.1465,220.37,-330,3,-1,,,Orion,,,India
96970,Globe at Night,2012-02-20 02:30:00+00:00,28.6883,77.1465,220.37,-330,2,-1,,,Orion,,,India
96969,Globe at Night,2012-02-19 02:30:00+00:00,28.6883,77.1465,220.37,-330,3,-1,,,Orion,,,India
96968,Globe at Night,2012-02-17 02:30:00+00:00,28.6883,77.1465,220.37,-330,2,-1,,,Orion,,,India
96967,Globe at Night,2012-02-18 02:30:00+00:00,28.6883,77.1465,220.37,-330,3,-1,,,Orion,,,India
96966,Globe at Night,2012-02-16 02:30:00+00:00,28.6883,77.1465,220.37,-330,2,-1,,,Orion,,,India
96965,Globe at Night,2012-02-15 02:30:00+00:00,28.6883,77.1465,220.37,-330,2,-1,,,Orion,,,India
96964,Globe at Night,2012-02-14 02:30:00+00:00,28.6883,77.1465,220.37,-330,3,-1,,,Orion,,,India
96963,Globe at Night,2012-01-23 02:30:00+00:00,28.6883,77.1465,220.37,-330,-9999,-1,,,Orion,,,India
96962,Globe at Night,2012-01-24 02:30:00+00:00,28.6883,77.1465,220.37,-330,1,-1,,,Orion,,,India
96961,Globe at Night,2012-01-22 02:30:00+00:00,28.6883,77.1465,220.37,-330,1,-1,,,Orion,,,India
96960,Globe at Night,2012-01-21 02:30:00+00:00,28.6883,77.1465,220.37,-330,1,-1,,,Orion,,,India
96959,Globe at Night,2012-01-20 02:30:00+00:00,28.6883,77.1465,220.37,-330,1,-1,,,Orion,,,India
96958,Globe at Night,2012-01-19 02:30:00+00:00,28.6883,77.1465,220.37,-330,1,-1,,,Orion,,,India
96957,Globe at Night,2012-01-17 02:30:00+00:00,28.6883,77.1465,220.37,-330,2,-1,,,Orion,,,India
96956,Globe at Night,2012-01-18 02:30:00+00:00,28.6883,77.1465,220.37,-330,2,-1,,,Orion,,,India
96955,Globe at Night,2012-01-16 02:30:00+00:00,28.6883,77.1465,220.37,-330,2,-1,,,Orion,,,India
96954,Globe at Night,2012-01-15 02:30:00+00:00,28.6883,77.1465,220.37,-330,2,-1,,,Orion,,,India
96953,Globe at Night,2012-01-14 02:30:00+00:00,28.6883,77.1465,220.37,-330,2,-1,,,Orion,,,India
96952,Globe at Night,2012-03-23 02:30:00+00:00,28.7133,77.2094,213.51,-330,3,-1,,,Orion,,,India
96951,Globe at Night,2012-03-22 02:30:00+00:00,28.7133,77.2094,213.51,-330,2,-1,,,Orion,,,India
96950,Globe at Night,2012-03-21 02:30:00+00:00,28.7133,77.2094,213.51,-330,2,-1,,,Orion,,,India
96949,Globe at Night,2012-03-20 02:30:00+00:00,28.7133,77.2094,213.51,-330,2,-1,,,Orion,,,India
96948,Globe at Night,2012-03-19 02:30:00+00:00,28.7133,77.2094,213.51,-330,2,-1,,,Orion,,,India
96947,Globe at Night,2012-03-18 02:30:00+00:00,28.7133,77.2094,213.51,-330,2,-1,,,Orion,,,India
96946,Globe at Night,2012-03-17 02:30:00+00:00,28.7133,77.2094,213.51,-330,2,-1,,,Orion,,,India
96945,Globe at Night,2012-03-16 02:30:00+00:00,28.7133,77.2094,213.51,-330,3,-1,,,Orion,,,India
96944,Globe at Night,2012-03-15 02:30:00+00:00,28.7133,77.2094,213.51,-330,3,-1,,,Orion,,,India
96943,Globe at Night,2012-03-14 02:30:00+00:00,28.7133,77.2094,213.51,-330,3,-1,,,Orion,,,India
96942,Globe at Night,2012-02-12 02:30:00+00:00,28.7133,77.2094,213.51,-330,3,-1,,,Orion,,,India
96941,Globe at Night,2012-02-13 02:30:00+00:00,28.7133,77.2094,213.51,-330,2,-1,,,Orion,,,India
96940,Globe at Night,2012-02-22 02:30:00+00:00,28.7133,77.2094,213.51,-330,2,-1,,,Orion,,,India
96939,Globe at Night,2012-02-21 02:30:00+00:00,28.7133,77.2094,213.51,-330,2,-1,,,Orion,,,India
96938,Globe at Night,2012-02-20 02:30:00+00:00,28.7133,77.2094,213.51,-330,2,-1,,,Orion,,,India
96937,Globe at Night,2012-02-19 02:30:00+00:00,28.7133,77.2094,213.51,-330,2,-1,,,Orion,,,India
96936,Globe at Night,2012-02-17 02:30:00+00:00,28.7133,77.2094,213.51,-330,2,-1,,,Orion,,,India
96935,Globe at Night,2012-02-18 02:30:00+00:00,28.7133,77.2094,213.51,-330,3,-1,,,Orion,,,India
96934,Globe at Night,2012-02-16 02:30:00+00:00,28.7133,77.2094,213.51,-330,2,-1,,,Orion,,,India
96933,Globe at Night,2012-02-15 02:30:00+00:00,28.7133,77.2094,213.51,-330,2,-1,,,Orion,,,India
96932,Globe at Night,2012-02-14 02:30:00+00:00,28.7133,77.2094,213.51,-330,2,-1,,,Orion,,,India
96931,Globe at Night,2012-01-23 02:30:00+00:00,28.7133,77.2094,213.51,-330,2,-1,,,Orion,,,India
96930,Globe at Night,2012-01-24 02:30:00+00:00,28.7133,77.2094,213.51,-330,2,-1,,,Orion,,,India
96929,Globe at Night,2012-01-22 02:30:00+00:00,28.7133,77.2094,213.51,-330,2,-1,,,Orion,,,India
96928,Globe at Night,2012-01-21 02:30:00+00:00,28.7133,77.2094,213.51,-330,3,-1,,,Orion,,,India
96927,Globe at Night,2012-01-20 02:30:00+00:00,28.7133,77.2094,213.51,-330,3,-1,,,Orion,,,India
96926,Globe at Night,2012-01-19 02:30:00+00:00,28.7133,77.2094,213.51,-330,2,-1,,,Orion,,,India
96925,Globe at Night,2012-01-17 02:30:00+00:00,28.7133,77.2094,213.51,-330,2,-1,,,Orion,,,India
96924,Globe at Night,2012-01-18 02:30:00+00:00,28.7133,77.2094,213.51,-330,2,-1,,,Orion,,,India
96923,Globe at Night,2012-01-16 02:30:00+00:00,28.7133,77.2094,213.51,-330,2,-1,,,Orion,,,India
96922,Globe at Night,2012-01-15 02:30:00+00:00,28.7133,77.2094,213.51,-330,2,-1,,,Orion,,,India
96921,Globe at Night,2012-01-14 02:30:00+00:00,28.7133,77.2094,213.51,-330,2,-1,,,Orion,,,India
96920,Globe at Night,2012-04-12 02:30:00+00:00,28.8382,77.1084,212.56,-330,3,-1,,,Orion,,,India
96919,Globe at Night,2012-04-23 02:30:00+00:00,28.8382,77.1084,212.56,-330,3,-1,,,Orion,,,India
96918,Globe at Night,2012-04-11 02:30:00+00:00,28.8382,77.1084,212.56,-330,3,-1,,,Orion,,,India
96917,Globe at Night,2012-04-21 02:30:00+00:00,28.8382,77.1084,212.56,-330,3,-1,,,Orion,,,India
96916,Globe at Night,2012-04-20 02:30:00+00:00,28.8382,77.1084,212.56,-330,4,-1,,,Orion,,,India
96915,Globe at Night,2012-04-19 02:30:00+00:00,28.8382,77.1084,212.56,-330,3,-1,,,Orion,,,India
96914,Globe at Night,2012-04-17 02:30:00+00:00,28.8382,77.1084,212.56,-330,3,-1,,,Orion,,,India
96913,Globe at Night,2012-04-18 02:30:00+00:00,28.8382,77.1084,212.56,-330,3,-1,,,Orion,,,India
96912,Globe at Night,2012-04-16 02:30:00+00:00,28.8382,77.1084,212.56,-330,3,-1,,,Orion,,,India
96911,Globe at Night,2012-04-15 02:30:00+00:00,28.8382,77.1084,212.56,-330,3,-1,,,Orion,,,India
96910,Globe at Night,2012-04-14 02:30:00+00:00,28.8382,77.1084,212.56,-330,3,-1,,,Orion,,,India
96909,Globe at Night,2012-03-24 02:30:00+00:00,28.8382,77.1084,212.56,-330,3,-1,,,Orion,,,India
96908,Globe at Night,2012-03-23 02:30:00+00:00,28.8382,77.1084,212.56,-330,3,-1,,,Orion,,,India
96907,Globe at Night,2012-03-22 02:30:00+00:00,28.8382,77.1084,212.56,-330,3,-1,,,Orion,,,India
96906,Globe at Night,2012-03-21 02:30:00+00:00,28.8382,77.1084,212.56,-330,3,-1,,,Orion,,,India
96905,Globe at Night,2012-03-20 02:30:00+00:00,28.8382,77.1084,212.56,-330,3,-1,,,Orion,,,India
96904,Globe at Night,2012-03-19 02:30:00+00:00,28.8382,77.1084,212.56,-330,2,-1,,,Orion,,,India
96903,Globe at Night,2012-03-18 02:30:00+00:00,28.8382,77.1084,212.56,-330,2,-1,,,Orion,,,India
96902,Globe at Night,2012-03-17 02:30:00+00:00,28.8382,77.1084,212.56,-330,2,-1,,,Orion,,,India
96901,Globe at Night,2012-03-16 02:30:00+00:00,28.8382,77.1084,212.56,-330,3,-1,,,Orion,,,India
96900,Globe at Night,2012-03-15 02:30:00+00:00,28.8382,77.1084,212.56,-330,3,-1,,,Orion,,,India
96899,Globe at Night,2012-03-14 02:30:00+00:00,28.8382,77.1084,212.56,-330,2,-1,,,Orion,,,India
96898,Globe at Night,2012-02-12 02:30:00+00:00,28.8382,77.1084,212.56,-330,2,-1,,,Orion,,,India
96897,Globe at Night,2012-02-13 02:30:00+00:00,28.8382,77.1084,212.56,-330,2,-1,,,Orion,,,India
96896,Globe at Night,2012-02-22 02:30:00+00:00,28.8382,77.1084,212.56,-330,2,-1,,,Orion,,,India
96895,Globe at Night,2012-02-21 02:30:00+00:00,28.8382,77.1084,212.56,-330,2,-1,,,Orion,,,India
96894,Globe at Night,2012-02-20 02:30:00+00:00,28.8382,77.1084,212.56,-330,3,-1,,,Orion,,,India
96893,Globe at Night,2012-02-19 02:30:00+00:00,28.8382,77.1084,212.56,-330,3,-1,,,Orion,,,India
96892,Globe at Night,2012-02-17 02:30:00+00:00,28.8382,77.1084,212.56,-330,2,-1,,,Orion,,,India
96891,Globe at Night,2012-02-18 02:30:00+00:00,28.8382,77.1084,212.56,-330,2,-1,,,Orion,,,India
96890,Globe at Night,2012-02-16 02:30:00+00:00,28.8382,77.1084,212.56,-330,2,-1,,,Orion,,,India
96889,Globe at Night,2012-02-15 02:30:00+00:00,28.8382,77.1084,212.56,-330,2,-1,,,Orion,,,India
96888,Globe at Night,2012-02-14 02:30:00+00:00,28.8382,77.1084,212.56,-330,3,-1,,,Orion,,,India
96887,Globe at Night,2012-01-23 02:30:00+00:00,28.8382,77.1084,212.56,-330,3,-1,,,Orion,,,India
96886,Globe at Night,2012-01-24 02:30:00+00:00,28.8382,77.1084,212.56,-330,3,-1,,,Orion,,,India
96885,Globe at Night,2012-01-22 02:30:00+00:00,28.8382,77.1084,212.56,-330,3,-1,,,Orion,,,India
96884,Globe at Night,2012-01-21 02:30:00+00:00,28.8382,77.1084,212.56,-330,3,-1,,,Orion,,,India
96883,Globe at Night,2012-01-20 02:30:00+00:00,28.8382,77.1084,212.56,-330,3,-1,,,Orion,,,India
96882,Globe at Night,2012-01-19 02:30:00+00:00,28.8382,77.1084,212.56,-330,3,-1,,,Orion,,,India
96881,Globe at Night,2012-01-17 02:30:00+00:00,28.8382,77.1084,212.56,-330,2,-1,,,Orion,,,India
96880,Globe at Night,2012-01-18 02:30:00+00:00,28.8382,77.1084,212.56,-330,2,-1,,,Orion,,,India
96879,Globe at Night,2012-01-16 02:30:00+00:00,28.8382,77.1084,212.56,-330,2,-1,,,Orion,,,India
96878,Globe at Night,2012-01-15 02:30:00+00:00,28.8382,77.1084,212.56,-330,2,-1,,,Orion,,,India
96877,Globe at Night,2012-01-14 02:30:00+00:00,28.8382,77.1084,212.56,-330,3,-1,,,Orion,,,India
96876,Globe at Night,2012-04-12 02:30:00+00:00,28.9881,77.0193,228.44,-330,3,-1,,,Orion,,,India
96875,Globe at Night,2012-04-23 02:30:00+00:00,28.9881,77.0193,228.44,-330,3,-1,,,Orion,,,India
96874,Globe at Night,2012-04-11 02:30:00+00:00,28.9881,77.0193,228.44,-330,3,-1,,,Orion,,,India
96873,Globe at Night,2012-04-21 02:30:00+00:00,28.9881,77.0193,228.44,-330,2,-1,,,Orion,,,India
96872,Globe at Night,2012-04-20 02:30:00+00:00,28.9881,77.0193,228.44,-330,3,-1,,,Orion,,,India
96871,Globe at Night,2012-04-19 02:30:00+00:00,28.9881,77.0193,228.44,-330,2,-1,,,Orion,,,India
96870,Globe at Night,2012-04-17 02:30:00+00:00,28.9881,77.0193,228.44,-330,3,-1,,,Orion,,,India
96869,Globe at Night,2012-04-18 02:30:00+00:00,28.9881,77.0193,228.44,-330,2,-1,,,Orion,,,India
96868,Globe at Night,2012-04-16 02:30:00+00:00,28.9881,77.0193,228.44,-330,3,-1,,,Orion,,,India
96867,Globe at Night,2012-04-15 02:30:00+00:00,28.9881,77.0193,228.44,-330,2,-1,,,Orion,,,India
96866,Globe at Night,2012-04-14 02:30:00+00:00,28.9881,77.0193,228.44,-330,3,-1,,,Orion,,,India
96865,Globe at Night,2012-03-24 02:30:00+00:00,28.9881,77.0193,228.44,-330,2,-1,,,Orion,,,India
96864,Globe at Night,2012-03-23 02:30:00+00:00,28.9881,77.0193,228.44,-330,3,-1,,,Orion,,,India
96863,Globe at Night,2012-03-22 02:30:00+00:00,28.9881,77.0193,228.44,-330,2,-1,,,Orion,,,India
96862,Globe at Night,2012-03-21 02:30:00+00:00,28.9881,77.0193,228.44,-330,3,-1,,,Orion,,,India
96861,Globe at Night,2012-03-20 02:30:00+00:00,28.9881,77.0193,228.44,-330,2,-1,,,Orion,,,India
96860,Globe at Night,2012-03-19 02:30:00+00:00,28.9881,77.0193,228.44,-330,2,-1,,,Orion,,,India
96859,Globe at Night,2012-03-18 02:30:00+00:00,28.9881,77.0193,228.44,-330,2,-1,,,Orion,,,India
96858,Globe at Night,2012-03-17 02:30:00+00:00,28.9881,77.0193,228.44,-330,3,-1,,,Orion,,,India
96857,Globe at Night,2012-03-16 02:30:00+00:00,28.9881,77.0193,228.44,-330,4,-1,,,Orion,,,India
96856,Globe at Night,2012-03-15 02:30:00+00:00,28.9881,77.0193,228.44,-330,2,-1,,,Orion,,,India
96855,Globe at Night,2012-03-14 02:30:00+00:00,28.9881,77.0193,228.44,-330,3,-1,,,Orion,,,India
96854,Globe at Night,2012-02-12 02:30:00+00:00,28.9881,77.0193,228.44,-330,2,-1,,,Orion,,,India
96853,Globe at Night,2012-02-13 02:30:00+00:00,28.9881,77.0193,228.44,-330,3,-1,,,Orion,,,India
96852,Globe at Night,2012-02-22 02:30:00+00:00,28.9881,77.0193,228.44,-330,2,-1,,,Orion,,,India
96851,Globe at Night,2012-02-21 02:30:00+00:00,28.9881,77.0193,228.44,-330,2,-1,,,Orion,,,India
96850,Globe at Night,2012-02-20 02:30:00+00:00,28.9881,77.0193,228.44,-330,3,-1,,,Orion,,,India
96849,Globe at Night,2012-02-19 02:30:00+00:00,28.9881,77.0193,228.44,-330,2,-1,,,Orion,,,India
96848,Globe at Night,2012-02-17 02:30:00+00:00,28.9881,77.0193,228.44,-330,2,-1,,,Orion,,,India
96847,Globe at Night,2012-02-18 02:30:00+00:00,28.9881,77.0193,228.44,-330,3,-1,,,Orion,,,India
96846,Globe at Night,2012-02-16 02:30:00+00:00,28.9881,77.0193,228.44,-330,2,-1,,,Orion,,,India
96845,Globe at Night,2012-02-15 02:30:00+00:00,28.9881,77.0193,228.44,-330,2,-1,,,Orion,,,India
96844,Globe at Night,2012-02-14 02:30:00+00:00,28.9881,77.0193,228.44,-330,2,-1,,,Orion,,,India
96843,Globe at Night,2012-01-23 02:30:00+00:00,28.9881,77.0193,228.44,-330,3,-1,,,Orion,,,India
96842,Globe at Night,2012-01-24 02:30:00+00:00,28.9881,77.0193,228.44,-330,2,-1,,,Orion,,,India
96841,Globe at Night,2012-01-22 02:30:00+00:00,28.9881,77.0193,228.44,-330,2,-1,,,Orion,,,India
96840,Globe at Night,2012-01-21 02:30:00+00:00,28.9881,77.0193,228.44,-330,2,-1,,,Orion,,,India
96839,Globe at Night,2012-01-20 02:30:00+00:00,28.9881,77.0193,228.44,-330,2,-1,,,Orion,,,India
96838,Globe at Night,2012-01-19 02:30:00+00:00,28.9881,77.0193,228.44,-330,3,-1,,,Orion,,,India
96837,Globe at Night,2012-01-17 02:30:00+00:00,28.9881,77.0193,228.44,-330,2,-1,,,Orion,,,India
96836,Globe at Night,2012-01-18 02:30:00+00:00,28.9881,77.0193,228.44,-330,2,-1,,,Orion,,,India
96835,Globe at Night,2012-01-16 02:30:00+00:00,28.9881,77.0193,228.44,-330,2,-1,,,Orion,,,India
96834,Globe at Night,2012-01-15 02:30:00+00:00,28.9881,77.0193,228.44,-330,3,-1,,,Orion,,,India
96833,Globe at Night,2012-01-14 02:30:00+00:00,28.9881,77.0193,228.44,-330,3,-1,,,Orion,,,India
96832,Globe at Night,2012-04-12 02:30:00+00:00,30.175,74.9333,206.78,-330,3,-1,,,Orion,,,India
96831,Globe at Night,2012-04-23 02:30:00+00:00,30.175,74.9333,206.78,-330,3,-1,,,Orion,,,India
96830,Globe at Night,2012-04-11 02:30:00+00:00,30.175,74.9333,206.78,-330,4,-1,,,Orion,,,India
96829,Globe at Night,2012-04-21 02:30:00+00:00,30.175,74.9333,206.78,-330,4,-1,,,Orion,,,India
96828,Globe at Night,2012-04-20 02:30:00+00:00,30.175,74.9333,206.78,-330,4,-1,,,Orion,,,India
96827,Globe at Night,2012-04-19 02:30:00+00:00,30.175,74.9333,206.78,-330,3,-1,,,Orion,,,India
96826,Globe at Night,2012-04-17 02:30:00+00:00,30.175,74.9333,206.78,-330,3,-1,,,Orion,,,India
96825,Globe at Night,2012-04-18 02:30:00+00:00,30.175,74.9333,206.78,-330,3,-1,,,Orion,,,India
96824,Globe at Night,2012-04-16 02:30:00+00:00,30.175,74.9333,206.78,-330,3,-1,,,Orion,,,India
96823,Globe at Night,2012-04-15 02:30:00+00:00,30.175,74.9333,206.78,-330,3,-1,,,Orion,,,India
96822,Globe at Night,2012-04-14 02:30:00+00:00,30.175,74.9333,206.78,-330,5,-1,,,Orion,,,India
96821,Globe at Night,2012-03-24 02:30:00+00:00,30.175,74.9333,206.78,-330,4,-1,,,Orion,,,India
96820,Globe at Night,2012-03-23 02:30:00+00:00,30.175,74.9333,206.78,-330,5,-1,,,Orion,,,India
96819,Globe at Night,2012-03-22 02:30:00+00:00,30.175,74.9333,206.78,-330,4,-1,,,Orion,,,India
96818,Globe at Night,2012-03-21 02:30:00+00:00,30.175,74.9333,206.78,-330,4,-1,,,Orion,,,India
96817,Globe at Night,2012-03-20 02:30:00+00:00,30.175,74.9333,206.78,-330,4,-1,,,Orion,,,India
96816,Globe at Night,2012-03-19 02:30:00+00:00,30.175,74.9333,206.78,-330,4,-1,,,Orion,,,India
96815,Globe at Night,2012-03-18 02:30:00+00:00,30.175,74.9333,206.78,-330,4,-1,,,Orion,,,India
96814,Globe at Night,2012-03-17 02:30:00+00:00,30.175,74.9333,206.78,-330,4,-1,,,Orion,,,India
96813,Globe at Night,2012-03-16 02:30:00+00:00,30.175,74.9333,206.78,-330,4,-1,,,Orion,,,India
96812,Globe at Night,2012-03-15 02:30:00+00:00,30.175,74.9333,206.78,-330,4,-1,,,Orion,,,India
96811,Globe at Night,2012-03-14 02:30:00+00:00,30.175,74.9333,206.78,-330,4,-1,,,Orion,,,India
96810,Globe at Night,2012-02-12 02:30:00+00:00,30.175,74.9333,206.78,-330,5,-1,,,Orion,,,India
96809,Globe at Night,2012-02-13 02:30:00+00:00,30.175,74.9333,206.78,-330,3,-1,,,Orion,,,India
96808,Globe at Night,2012-02-22 02:30:00+00:00,30.175,74.9333,206.78,-330,3,-1,,,Orion,,,India
96807,Globe at Night,2012-02-21 02:30:00+00:00,30.175,74.9333,206.78,-330,4,-1,,,Orion,,,India
96806,Globe at Night,2012-02-20 02:30:00+00:00,30.175,74.9333,206.78,-330,4,-1,,,Orion,,,India
96805,Globe at Night,2012-02-19 02:30:00+00:00,30.175,74.9333,206.78,-330,4,-1,,,Orion,,,India
96804,Globe at Night,2012-02-17 02:30:00+00:00,30.175,74.9333,206.78,-330,4,-1,,,Orion,,,India
96803,Globe at Night,2012-02-18 02:30:00+00:00,30.175,74.9333,206.78,-330,4,-1,,,Orion,,,India
96802,Globe at Night,2012-02-16 02:30:00+00:00,30.175,74.9333,206.78,-330,4,-1,,,Orion,,,India
96801,Globe at Night,2012-02-15 02:30:00+00:00,30.175,74.9333,206.78,-330,4,-1,,,Orion,,,India
96800,Globe at Night,2012-02-14 02:30:00+00:00,30.175,74.9333,206.78,-330,4,-1,,,Orion,,,India
96799,Globe at Night,2012-01-23 02:30:00+00:00,30.175,74.9333,206.78,-330,3,-1,,,Orion,,,India
96798,Globe at Night,2012-01-24 02:30:00+00:00,30.175,74.9333,206.78,-330,3,-1,,,Orion,,,India
96797,Globe at Night,2012-01-22 02:30:00+00:00,30.175,74.9333,206.78,-330,4,-1,,,Orion,,,India
96796,Globe at Night,2012-01-21 02:30:00+00:00,30.175,74.9333,206.78,-330,3,-1,,,Orion,,,India
96795,Globe at Night,2012-01-20 02:30:00+00:00,30.175,74.9333,206.78,-330,3,-1,,,Orion,,,India
96794,Globe at Night,2012-01-19 02:30:00+00:00,30.175,74.9333,206.78,-330,3,-1,,,Orion,,,India
96793,Globe at Night,2012-01-17 02:30:00+00:00,30.175,74.9333,206.78,-330,5,-1,,,Orion,,,India
96792,Globe at Night,2012-01-18 02:30:00+00:00,30.175,74.9333,206.78,-330,4,-1,,,Orion,,,India
96791,Globe at Night,2012-01-16 02:30:00+00:00,30.175,74.9333,206.78,-330,4,-1,,,Orion,,,India
96790,Globe at Night,2012-01-15 02:30:00+00:00,30.175,74.9333,206.78,-330,4,-1,,,Orion,,,India
96789,Globe at Night,2012-01-14 02:30:00+00:00,30.175,74.9333,206.78,-330,4,-1,,,Orion,,,India
96788,Globe at Night,2012-04-12 02:30:00+00:00,30.3758,76.1549,253.15,-330,4,-1,,,Orion,,,India
96787,Globe at Night,2012-04-23 02:30:00+00:00,30.3758,76.1549,253.15,-330,4,-1,,,Orion,,,India
96786,Globe at Night,2012-04-11 02:30:00+00:00,30.3758,76.1549,253.15,-330,3,-1,,,Orion,,,India
96785,Globe at Night,2012-04-21 02:30:00+00:00,30.3758,76.1549,253.15,-330,3,-1,,,Orion,,,India
96784,Globe at Night,2012-04-20 02:30:00+00:00,30.3758,76.1549,253.15,-330,3,-1,,,Orion,,,India
96783,Globe at Night,2012-04-19 02:30:00+00:00,30.3758,76.1549,253.15,-330,4,-1,,,Orion,,,India
96782,Globe at Night,2012-04-17 02:30:00+00:00,30.3758,76.1549,253.15,-330,4,-1,,,Orion,,,India
96781,Globe at Night,2012-04-18 02:30:00+00:00,30.3758,76.1549,253.15,-330,4,-1,,,Orion,,,India
96780,Globe at Night,2012-04-16 02:30:00+00:00,30.3758,76.1549,253.15,-330,5,-1,,,Orion,,,India
96779,Globe at Night,2012-04-15 02:30:00+00:00,30.3758,76.1549,253.15,-330,3,-1,,,Orion,,,India
96778,Globe at Night,2012-04-14 02:30:00+00:00,30.3758,76.1549,253.15,-330,3,-1,,,Orion,,,India
96777,Globe at Night,2012-03-24 02:30:00+00:00,30.3758,76.1549,253.15,-330,3,-1,,,Orion,,,India
96776,Globe at Night,2012-03-23 02:30:00+00:00,30.3758,76.1549,253.15,-330,3,-1,,,Orion,,,India
96775,Globe at Night,2012-03-22 02:30:00+00:00,30.3758,76.1549,253.15,-330,4,-1,,,Orion,,,India
96774,Globe at Night,2012-03-21 02:30:00+00:00,30.3758,76.1549,253.15,-330,3,-1,,,Orion,,,India
96773,Globe at Night,2012-03-20 02:30:00+00:00,30.3758,76.1549,253.15,-330,3,-1,,,Orion,,,India
96772,Globe at Night,2012-03-19 02:30:00+00:00,30.3758,76.1549,253.15,-330,4,-1,,,Orion,,,India
96771,Globe at Night,2012-03-18 02:30:00+00:00,30.3758,76.1549,253.15,-330,3,-1,,,Orion,,,India
96770,Globe at Night,2012-03-17 02:30:00+00:00,30.3758,76.1549,253.15,-330,4,-1,,,Orion,,,India
96769,Globe at Night,2012-03-16 02:30:00+00:00,30.3758,76.1549,253.15,-330,4,-1,,,Orion,,,India
96768,Globe at Night,2012-03-15 02:30:00+00:00,30.3758,76.1549,253.15,-330,4,-1,,,Orion,,,India
96767,Globe at Night,2012-03-14 02:30:00+00:00,30.3758,76.1549,253.15,-330,3,-1,,,Orion,,,India
96766,Globe at Night,2012-02-12 02:30:00+00:00,30.3758,76.1549,253.15,-330,3,-1,,,Orion,,,India
96765,Globe at Night,2012-02-13 02:30:00+00:00,30.3758,76.1549,253.15,-330,4,-1,,,Orion,,,India
96764,Globe at Night,2012-02-22 02:30:00+00:00,30.3758,76.1549,253.15,-330,4,-1,,,Orion,,,India
96763,Globe at Night,2012-02-21 02:30:00+00:00,30.3758,76.1549,253.15,-330,4,-1,,,Orion,,,India
96762,Globe at Night,2012-02-20 02:30:00+00:00,30.3758,76.1549,253.15,-330,3,-1,,,Orion,,,India
96761,Globe at Night,2012-02-19 02:30:00+00:00,30.3758,76.1549,253.15,-330,3,-1,,,Orion,,,India
96760,Globe at Night,2012-02-17 02:30:00+00:00,30.3758,76.1549,253.15,-330,5,-1,,,Orion,,,India
96759,Globe at Night,2012-02-18 02:30:00+00:00,30.3758,76.1549,253.15,-330,5,-1,,,Orion,,,India
96758,Globe at Night,2012-02-16 02:30:00+00:00,30.3758,76.1549,253.15,-330,4,-1,,,Orion,,,India
96757,Globe at Night,2012-02-15 02:30:00+00:00,30.3758,76.1549,253.15,-330,3,-1,,,Orion,,,India
96756,Globe at Night,2012-02-14 02:30:00+00:00,30.3758,76.1549,253.15,-330,3,-1,,,Orion,,,India
96755,Globe at Night,2012-01-23 02:30:00+00:00,30.3758,76.1549,253.15,-330,4,-1,,,Orion,,,India
96754,Globe at Night,2012-01-24 02:30:00+00:00,30.3758,76.1549,253.15,-330,3,-1,,,Orion,,,India
96753,Globe at Night,2012-01-22 02:30:00+00:00,30.3758,76.1549,253.15,-330,3,-1,,,Orion,,,India
96752,Globe at Night,2012-01-21 02:30:00+00:00,30.3758,76.1549,253.15,-330,4,-1,,,Orion,,,India
96751,Globe at Night,2012-01-20 02:30:00+00:00,30.3758,76.1549,253.15,-330,3,-1,,,Orion,,,India
96750,Globe at Night,2012-01-19 02:30:00+00:00,30.3758,76.1549,253.15,-330,3,-1,,,Orion,,,India
96749,Globe at Night,2012-01-17 02:30:00+00:00,30.3758,76.1549,253.15,-330,4,-1,,,Orion,,,India
96748,Globe at Night,2012-01-18 02:30:00+00:00,30.3758,76.1549,253.15,-330,3,-1,,,Orion,,,India
96747,Globe at Night,2012-01-16 02:30:00+00:00,30.3758,76.1549,253.15,-330,3,-1,,,Orion,,,India
96746,Globe at Night,2012-01-15 02:30:00+00:00,30.3758,76.1549,253.15,-330,3,-1,,,Orion,,,India
96745,Globe at Night,2012-01-14 02:30:00+00:00,30.3758,76.1549,253.15,-330,3,-1,,,Orion,,,India
96744,Globe at Night,2012-04-12 02:30:00+00:00,30.4831,76.5923,273.91,-330,4,-1,,,Orion,,,India
96743,Globe at Night,2012-04-23 02:30:00+00:00,30.4831,76.5923,273.91,-330,4,-1,,,Orion,,,India
96742,Globe at Night,2012-04-11 02:30:00+00:00,30.4831,76.5923,273.91,-330,4,-1,,,Orion,,,India
96741,Globe at Night,2012-04-21 02:30:00+00:00,30.4831,76.5923,273.91,-330,4,-1,,,Orion,,,India
96740,Globe at Night,2012-04-20 02:30:00+00:00,30.4831,76.5923,273.91,-330,4,-1,,,Orion,,,India
96739,Globe at Night,2012-04-19 02:30:00+00:00,30.4831,76.5923,273.91,-330,4,-1,,,Orion,,,India
96738,Globe at Night,2012-04-17 02:30:00+00:00,30.4831,76.5923,273.91,-330,4,-1,,,Orion,,,India
96737,Globe at Night,2012-04-18 02:30:00+00:00,30.4831,76.5923,273.91,-330,4,-1,,,Orion,,,India
96736,Globe at Night,2012-04-16 02:30:00+00:00,30.4831,76.5923,273.91,-330,4,-1,,,Orion,,,India
96735,Globe at Night,2012-04-15 02:30:00+00:00,30.4831,76.5923,273.91,-330,4,-1,,,Orion,,,India
96734,Globe at Night,2012-04-14 02:30:00+00:00,30.4831,76.5923,273.91,-330,3,-1,,,Orion,,,India
96733,Globe at Night,2012-03-24 02:30:00+00:00,30.4831,76.5923,273.91,-330,3,-1,,,Orion,,,India
96732,Globe at Night,2012-03-23 02:30:00+00:00,30.4831,76.5923,273.91,-330,3,-1,,,Orion,,,India
96731,Globe at Night,2012-03-22 02:30:00+00:00,30.4831,76.5923,273.91,-330,3,-1,,,Orion,,,India
96730,Globe at Night,2012-03-21 02:30:00+00:00,30.4831,76.5923,273.91,-330,3,-1,,,Orion,,,India
96729,Globe at Night,2012-03-20 02:30:00+00:00,30.4831,76.5923,273.91,-330,3,-1,,,Orion,,,India
96728,Globe at Night,2012-03-19 02:30:00+00:00,30.4831,76.5923,273.91,-330,4,-1,,,Orion,,,India
96727,Globe at Night,2012-03-18 02:30:00+00:00,30.4831,76.5923,273.91,-330,4,-1,,,Orion,,,India
96726,Globe at Night,2012-03-17 02:30:00+00:00,30.4831,76.5923,273.91,-330,4,-1,,,Orion,,,India
96725,Globe at Night,2012-03-16 02:30:00+00:00,30.4831,76.5923,273.91,-330,4,-1,,,Orion,,,India
96724,Globe at Night,2012-03-15 02:30:00+00:00,30.4831,76.5923,273.91,-330,3,-1,,,Orion,,,India
96723,Globe at Night,2012-03-14 02:30:00+00:00,30.4831,76.5923,273.91,-330,3,-1,,,Orion,,,India
96722,Globe at Night,2012-02-12 02:30:00+00:00,30.4831,76.5923,273.91,-330,3,-1,,,Orion,,,India
96721,Globe at Night,2012-02-13 02:30:00+00:00,30.4831,76.5923,273.91,-330,4,-1,,,Orion,,,India
96720,Globe at Night,2012-02-22 02:30:00+00:00,30.4831,76.5923,273.91,-330,4,-1,,,Orion,,,India
96719,Globe at Night,2012-02-21 02:30:00+00:00,30.4831,76.5923,273.91,-330,4,-1,,,Orion,,,India
96718,Globe at Night,2012-02-20 02:30:00+00:00,30.4831,76.5923,273.91,-330,4,-1,,,Orion,,,India
96717,Globe at Night,2012-02-19 02:30:00+00:00,30.4831,76.5923,273.91,-330,4,-1,,,Orion,,,India
96716,Globe at Night,2012-02-17 02:30:00+00:00,30.4831,76.5923,273.91,-330,3,-1,,,Orion,,,India
96715,Globe at Night,2012-02-18 02:30:00+00:00,30.4831,76.5923,273.91,-330,3,-1,,,Orion,,,India
96714,Globe at Night,2012-02-16 02:30:00+00:00,30.4831,76.5923,273.91,-330,3,-1,,,Orion,,,India
96713,Globe at Night,2012-02-15 02:30:00+00:00,30.4831,76.5923,273.91,-330,3,-1,,,Orion,,,India
96712,Globe at Night,2012-02-14 02:30:00+00:00,30.4831,76.5923,273.91,-330,4,-1,,,Orion,,,India
96711,Globe at Night,2012-01-23 02:30:00+00:00,30.4831,76.5923,273.91,-330,4,-1,,,Orion,,,India
96710,Globe at Night,2012-01-24 02:30:00+00:00,30.4831,76.5923,273.91,-330,4,-1,,,Orion,,,India
96709,Globe at Night,2012-01-22 02:30:00+00:00,30.4831,76.5923,273.91,-330,3,-1,,,Orion,,,India
96708,Globe at Night,2012-01-21 02:30:00+00:00,30.4831,76.5923,273.91,-330,3,-1,,,Orion,,,India
96707,Globe at Night,2012-01-20 02:30:00+00:00,30.4831,76.5923,273.91,-330,3,-1,,,Orion,,,India
96706,Globe at Night,2012-01-19 02:30:00+00:00,30.4831,76.5923,273.91,-330,4,-1,,,Orion,,,India
96705,Globe at Night,2012-01-17 02:30:00+00:00,30.4831,76.5923,273.91,-330,4,-1,,,Orion,,,India
96704,Globe at Night,2012-01-18 02:30:00+00:00,30.4831,76.5923,273.91,-330,4,-1,,,Orion,,,India
96703,Globe at Night,2012-01-16 02:30:00+00:00,30.4831,76.5923,273.91,-330,4,-1,,,Orion,,,India
96702,Globe at Night,2012-01-15 02:30:00+00:00,30.4831,76.5923,273.91,-330,4,-1,,,Orion,,,India
96701,Globe at Night,2012-01-14 02:30:00+00:00,30.4831,76.5923,273.91,-330,4,-1,,,Orion,,,India
96700,Globe at Night,2012-04-12 02:30:00+00:00,30.6649,76.8419,309.01,-330,5,-1,,,Orion,,,India
96699,Globe at Night,2012-04-23 02:30:00+00:00,30.6649,76.8419,309.01,-330,4,-1,,,Orion,,,India
96698,Globe at Night,2012-04-11 02:30:00+00:00,30.6649,76.8419,309.01,-330,4,-1,,,Orion,,,India
96697,Globe at Night,2012-04-21 02:30:00+00:00,30.6649,76.8419,309.01,-330,4,-1,,,Orion,,,India
96696,Globe at Night,2012-04-20 02:30:00+00:00,30.6649,76.8419,309.01,-330,4,-1,,,Orion,,,India
96695,Globe at Night,2012-04-19 02:30:00+00:00,30.6649,76.8419,309.01,-330,4,-1,,,Orion,,,India
96694,Globe at Night,2012-04-17 02:30:00+00:00,30.6649,76.8419,309.01,-330,4,-1,,,Orion,,,India
96693,Globe at Night,2012-04-18 02:30:00+00:00,30.6649,76.8419,309.01,-330,3,-1,,,Orion,,,India
96692,Globe at Night,2012-04-16 02:30:00+00:00,30.6649,76.8419,309.01,-330,3,-1,,,Orion,,,India
96691,Globe at Night,2012-04-15 02:30:00+00:00,30.6649,76.8419,309.01,-330,3,-1,,,Orion,,,India
96690,Globe at Night,2012-04-14 02:30:00+00:00,30.6649,76.8419,309.01,-330,4,-1,,,Orion,,,India
96689,Globe at Night,2012-03-24 02:30:00+00:00,30.6649,76.8419,309.01,-330,3,-1,,,Orion,,,India
96688,Globe at Night,2012-03-23 02:30:00+00:00,30.6649,76.8419,309.01,-330,4,-1,,,Orion,,,India
96687,Globe at Night,2012-03-22 02:30:00+00:00,30.6649,76.8419,309.01,-330,3,-1,,,Orion,,,India
96686,Globe at Night,2012-03-21 02:30:00+00:00,30.6649,76.8419,309.01,-330,4,-1,,,Orion,,,India
96685,Globe at Night,2012-03-20 02:30:00+00:00,30.6649,76.8419,309.01,-330,3,-1,,,Orion,,,India
96684,Globe at Night,2012-03-19 02:30:00+00:00,30.6649,76.8419,309.01,-330,4,-1,,,Orion,,,India
96683,Globe at Night,2012-03-18 02:30:00+00:00,30.6649,76.8419,309.01,-330,3,-1,,,Orion,,,India
96682,Globe at Night,2012-03-17 02:30:00+00:00,30.6649,76.8419,309.01,-330,2,-1,,,Orion,,,India
96681,Globe at Night,2012-03-16 02:30:00+00:00,30.6649,76.8419,309.01,-330,2,-1,,,Orion,,,India
96680,Globe at Night,2012-03-15 02:30:00+00:00,30.6649,76.8419,309.01,-330,5,-1,,,Orion,,,India
96679,Globe at Night,2012-03-14 02:30:00+00:00,30.6649,76.8419,309.01,-330,4,-1,,,Orion,,,India
96678,Globe at Night,2012-02-12 02:30:00+00:00,30.6649,76.8419,309.01,-330,3,-1,,,Orion,,,India
96677,Globe at Night,2012-02-13 02:30:00+00:00,30.6649,76.8419,309.01,-330,3,-1,,,Orion,,,India
96676,Globe at Night,2012-02-22 02:30:00+00:00,30.6649,76.8419,309.01,-330,4,-1,,,Orion,,,India
96675,Globe at Night,2012-02-21 02:30:00+00:00,30.6649,76.8419,309.01,-330,5,-1,,,Orion,,,India
96674,Globe at Night,2012-02-20 02:30:00+00:00,30.6649,76.8419,309.01,-330,5,-1,,,Orion,,,India
96673,Globe at Night,2012-02-19 02:30:00+00:00,30.6649,76.8419,309.01,-330,3,-1,,,Orion,,,India
96672,Globe at Night,2012-02-17 02:30:00+00:00,30.6649,76.8419,309.01,-330,4,-1,,,Orion,,,India
96671,Globe at Night,2012-02-18 02:30:00+00:00,30.6649,76.8419,309.01,-330,3,-1,,,Orion,,,India
96670,Globe at Night,2012-02-16 02:30:00+00:00,30.6649,76.8419,309.01,-330,4,-1,,,Orion,,,India
96669,Globe at Night,2012-02-15 02:30:00+00:00,30.6649,76.8419,309.01,-330,3,-1,,,Orion,,,India
96668,Globe at Night,2012-02-14 02:30:00+00:00,30.6649,76.8419,309.01,-330,4,-1,,,Orion,,,India
96667,Globe at Night,2012-01-23 02:30:00+00:00,30.6649,76.8419,309.01,-330,3,-1,,,Orion,,,India
96666,Globe at Night,2012-01-24 02:30:00+00:00,30.6649,76.8419,309.01,-330,3,-1,,,Orion,,,India
96665,Globe at Night,2012-01-22 02:30:00+00:00,30.6649,76.8419,309.01,-330,4,-1,,,Orion,,,India
96664,Globe at Night,2012-01-21 02:30:00+00:00,30.6649,76.8419,309.01,-330,3,-1,,,Orion,,,India
96663,Globe at Night,2012-01-20 02:30:00+00:00,30.6649,76.8419,309.01,-330,3,-1,,,Orion,,,India
96662,Globe at Night,2012-01-19 02:30:00+00:00,30.6649,76.8419,309.01,-330,3,-1,,,Orion,,,India
96661,Globe at Night,2012-01-17 02:30:00+00:00,30.6649,76.8419,309.01,-330,3,-1,,,Orion,,,India
96660,Globe at Night,2012-01-18 02:30:00+00:00,30.6649,76.8419,309.01,-330,4,-1,,,Orion,,,India
96659,Globe at Night,2012-01-16 02:30:00+00:00,30.6649,76.8419,309.01,-330,4,-1,,,Orion,,,India
96658,Globe at Night,2012-01-15 02:30:00+00:00,30.6649,76.8419,309.01,-330,4,-1,,,Orion,,,India
96657,Globe at Night,2012-01-14 02:30:00+00:00,30.6649,76.8419,309.01,-330,4,-1,,,Orion,,,India
96656,Globe at Night,2012-04-12 02:30:00+00:00,30.589,76.8403,307.0,-330,5,-1,,,Orion,,,India
96655,Globe at Night,2012-04-23 02:30:00+00:00,30.589,76.8403,307.0,-330,5,-1,,,Orion,,,India
96654,Globe at Night,2012-04-11 02:30:00+00:00,30.589,76.8403,307.0,-330,5,-1,,,Orion,,,India
96653,Globe at Night,2012-04-21 02:30:00+00:00,30.589,76.8403,307.0,-330,5,-1,,,Orion,,,India
96652,Globe at Night,2012-04-20 02:30:00+00:00,30.589,76.8403,307.0,-330,4,-1,,,Orion,,,India
96651,Globe at Night,2012-04-19 02:30:00+00:00,30.589,76.8403,307.0,-330,4,-1,,,Orion,,,India
96650,Globe at Night,2012-04-17 02:30:00+00:00,30.589,76.8403,307.0,-330,4,-1,,,Orion,,,India
96649,Globe at Night,2012-04-18 02:30:00+00:00,30.589,76.8403,307.0,-330,4,-1,,,Orion,,,India
96648,Globe at Night,2012-04-16 02:30:00+00:00,30.589,76.8403,307.0,-330,4,-1,,,Orion,,,India
96647,Globe at Night,2012-04-15 02:30:00+00:00,30.589,76.8403,307.0,-330,5,-1,,,Orion,,,India
96646,Globe at Night,2012-04-14 02:30:00+00:00,30.589,76.8403,307.0,-330,4,-1,,,Orion,,,India
96645,Globe at Night,2012-03-24 02:30:00+00:00,30.589,76.8403,307.0,-330,4,-1,,,Orion,,,India
96644,Globe at Night,2012-03-23 02:30:00+00:00,30.589,76.8403,307.0,-330,5,-1,,,Orion,,,India
96643,Globe at Night,2012-03-22 02:30:00+00:00,30.589,76.8403,307.0,-330,4,-1,,,Orion,,,India
96642,Globe at Night,2012-03-21 02:30:00+00:00,30.589,76.8403,307.0,-330,4,-1,,,Orion,,,India
96641,Globe at Night,2012-03-20 02:30:00+00:00,30.589,76.8403,307.0,-330,5,-1,,,Orion,,,India
96640,Globe at Night,2012-03-19 02:30:00+00:00,30.589,76.8403,307.0,-330,4,-1,,,Orion,,,India
96639,Globe at Night,2012-03-18 02:30:00+00:00,30.589,76.8403,307.0,-330,3,-1,,,Orion,,,India
96638,Globe at Night,2012-03-17 02:30:00+00:00,30.589,76.8403,307.0,-330,4,-1,,,Orion,,,India
96637,Globe at Night,2012-03-16 02:30:00+00:00,30.589,76.8403,307.0,-330,4,-1,,,Orion,,,India
96636,Globe at Night,2012-03-15 02:30:00+00:00,30.589,76.8403,307.0,-330,4,-1,,,Orion,,,India
96635,Globe at Night,2012-03-14 02:30:00+00:00,30.589,76.8403,307.0,-330,4,-1,,,Orion,,,India
96634,Globe at Night,2012-02-12 02:30:00+00:00,30.589,76.8403,307.0,-330,6,-1,,,Orion,,,India
96633,Globe at Night,2012-02-13 02:30:00+00:00,30.589,76.8403,307.0,-330,5,-1,,,Orion,,,India
96632,Globe at Night,2012-02-22 02:30:00+00:00,30.589,76.8403,307.0,-330,4,-1,,,Orion,,,India
96631,Globe at Night,2012-02-21 02:30:00+00:00,30.589,76.8403,307.0,-330,4,-1,,,Orion,,,India
96630,Globe at Night,2012-02-20 02:30:00+00:00,30.589,76.8403,307.0,-330,4,-1,,,Orion,,,India
96629,Globe at Night,2012-02-19 02:30:00+00:00,30.589,76.8403,307.0,-330,4,-1,,,Orion,,,India
96628,Globe at Night,2012-02-17 02:30:00+00:00,30.589,76.8403,307.0,-330,3,-1,,,Orion,,,India
96627,Globe at Night,2012-02-18 02:30:00+00:00,30.589,76.8403,307.0,-330,3,-1,,,Orion,,,India
96626,Globe at Night,2012-02-16 02:30:00+00:00,30.589,76.8403,307.0,-330,3,-1,,,Orion,,,India
96625,Globe at Night,2012-02-15 02:30:00+00:00,30.589,76.8403,307.0,-330,3,-1,,,Orion,,,India
96624,Globe at Night,2012-02-14 02:30:00+00:00,30.589,76.8403,307.0,-330,6,-1,,,Orion,,,India
96623,Globe at Night,2012-01-23 02:30:00+00:00,30.589,76.8403,307.0,-330,4,-1,,,Orion,,,India
96622,Globe at Night,2012-01-24 02:30:00+00:00,30.589,76.8403,307.0,-330,4,-1,,,Orion,,,India
96621,Globe at Night,2012-01-22 02:30:00+00:00,30.589,76.8403,307.0,-330,5,-1,,,Orion,,,India
96620,Globe at Night,2012-01-21 02:30:00+00:00,30.589,76.8403,307.0,-330,4,-1,,,Orion,,,India
96619,Globe at Night,2012-01-20 02:30:00+00:00,30.589,76.8403,307.0,-330,4,-1,,,Orion,,,India
96618,Globe at Night,2012-01-19 02:30:00+00:00,30.589,76.8403,307.0,-330,4,-1,,,Orion,,,India
96617,Globe at Night,2012-01-17 02:30:00+00:00,30.589,76.8403,307.0,-330,4,-1,,,Orion,,,India
96616,Globe at Night,2012-01-18 02:30:00+00:00,30.589,76.8403,307.0,-330,4,-1,,,Orion,,,India
96615,Globe at Night,2012-01-16 02:30:00+00:00,30.589,76.8403,307.0,-330,3,-1,,,Orion,,,India
96614,Globe at Night,2012-01-15 02:30:00+00:00,30.589,76.8403,307.0,-330,3,-1,,,Orion,,,India
96613,Globe at Night,2012-01-14 02:30:00+00:00,30.589,76.8403,307.0,-330,3,-1,,,Orion,,,India
96612,Globe at Night,2012-04-12 02:30:00+00:00,30.2657,74.9324,206.6,-330,4,-1,,,Orion,,,India
96611,Globe at Night,2012-04-23 02:30:00+00:00,30.2657,74.9324,206.6,-330,4,-1,,,Orion,,,India
96610,Globe at Night,2012-04-11 02:30:00+00:00,30.2657,74.9324,206.6,-330,4,-1,,,Orion,,,India
96609,Globe at Night,2012-04-21 02:30:00+00:00,30.2657,74.9324,206.6,-330,4,-1,,,Orion,,,India
96608,Globe at Night,2012-04-20 02:30:00+00:00,30.2657,74.9324,206.6,-330,4,-1,,,Orion,,,India
96607,Globe at Night,2012-04-19 02:30:00+00:00,30.2657,74.9324,206.6,-330,5,-1,,,Orion,,,India
96606,Globe at Night,2012-04-17 02:30:00+00:00,30.2657,74.9324,206.6,-330,5,-1,,,Orion,,,India
96605,Globe at Night,2012-04-18 02:30:00+00:00,30.2657,74.9324,206.6,-330,4,-1,,,Orion,,,India
96604,Globe at Night,2012-04-16 02:30:00+00:00,30.2657,74.9324,206.6,-330,2,-1,,,Orion,,,India
96603,Globe at Night,2012-04-15 02:30:00+00:00,30.2657,74.9324,206.6,-330,3,-1,,,Orion,,,India
96602,Globe at Night,2012-04-14 02:30:00+00:00,30.2657,74.9324,206.6,-330,3,-1,,,Orion,,,India
96601,Globe at Night,2012-03-24 02:30:00+00:00,30.2657,74.9324,206.6,-330,3,-1,,,Orion,,,India
96600,Globe at Night,2012-03-23 02:30:00+00:00,30.2657,74.9324,206.6,-330,3,-1,,,Orion,,,India
96599,Globe at Night,2012-03-22 02:30:00+00:00,30.2657,74.9324,206.6,-330,4,-1,,,Orion,,,India
96598,Globe at Night,2012-03-21 02:30:00+00:00,30.2657,74.9324,206.6,-330,3,-1,,,Orion,,,India
96597,Globe at Night,2012-03-20 02:30:00+00:00,30.2657,74.9324,206.6,-330,3,-1,,,Orion,,,India
96596,Globe at Night,2012-03-19 02:30:00+00:00,30.2657,74.9324,206.6,-330,3,-1,,,Orion,,,India
96595,Globe at Night,2012-03-18 02:30:00+00:00,30.2657,74.9324,206.6,-330,3,-1,,,Orion,,,India
96594,Globe at Night,2012-03-17 02:30:00+00:00,30.2657,74.9324,206.6,-330,3,-1,,,Orion,,,India
96593,Globe at Night,2012-03-16 02:30:00+00:00,30.2657,74.9324,206.6,-330,3,-1,,,Orion,,,India
96592,Globe at Night,2012-03-15 02:30:00+00:00,30.2657,74.9324,206.6,-330,3,-1,,,Orion,,,India
96591,Globe at Night,2012-03-14 02:30:00+00:00,30.2657,74.9324,206.6,-330,5,-1,,,Orion,,,India
96590,Globe at Night,2012-02-12 02:30:00+00:00,30.2657,74.9324,206.6,-330,4,-1,,,Orion,,,India
96589,Globe at Night,2012-02-13 02:30:00+00:00,30.2657,74.9324,206.6,-330,4,-1,,,Orion,,,India
96588,Globe at Night,2012-02-22 02:30:00+00:00,30.2657,74.9324,206.6,-330,4,-1,,,Orion,,,India
96587,Globe at Night,2012-02-21 02:30:00+00:00,30.2657,74.9324,206.6,-330,3,-1,,,Orion,,,India
96586,Globe at Night,2012-02-20 02:30:00+00:00,30.2657,74.9324,206.6,-330,3,-1,,,Orion,,,India
96585,Globe at Night,2012-02-19 02:30:00+00:00,30.2657,74.9324,206.6,-330,3,-1,,,Orion,,,India
96584,Globe at Night,2012-02-17 02:30:00+00:00,30.2657,74.9324,206.6,-330,4,-1,,,Orion,,,India
96583,Globe at Night,2012-02-18 02:30:00+00:00,30.2657,74.9324,206.6,-330,4,-1,,,Orion,,,India
96582,Globe at Night,2012-02-16 02:30:00+00:00,30.2657,74.9324,206.6,-330,4,-1,,,Orion,,,India
96581,Globe at Night,2012-02-15 02:30:00+00:00,30.2657,74.9324,206.6,-330,4,-1,,,Orion,,,India
96580,Globe at Night,2012-02-14 02:30:00+00:00,30.2657,74.9324,206.6,-330,3,-1,,,Orion,,,India
96579,Globe at Night,2012-01-23 02:30:00+00:00,30.2657,74.9324,206.6,-330,4,-1,,,Orion,,,India
96578,Globe at Night,2012-01-24 02:30:00+00:00,30.2657,74.9324,206.6,-330,4,-1,,,Orion,,,India
96577,Globe at Night,2012-01-22 02:30:00+00:00,30.2657,74.9324,206.6,-330,5,-1,,,Orion,,,India
96576,Globe at Night,2012-01-21 02:30:00+00:00,30.2657,74.9324,206.6,-330,6,-1,,,Orion,,,India
96575,Globe at Night,2012-01-20 02:30:00+00:00,30.2657,74.9324,206.6,-330,5,-1,,,Orion,,,India
96574,Globe at Night,2012-01-19 02:30:00+00:00,30.2657,74.9324,206.6,-330,5,-1,,,Orion,,,India
96573,Globe at Night,2012-01-17 02:30:00+00:00,30.2657,74.9324,206.6,-330,5,-1,,,Orion,,,India
96572,Globe at Night,2012-01-18 02:30:00+00:00,30.2657,74.9324,206.6,-330,4,-1,,,Orion,,,India
96571,Globe at Night,2012-01-16 02:30:00+00:00,30.2657,74.9324,206.6,-330,4,-1,,,Orion,,,India
96570,Globe at Night,2012-01-15 02:30:00+00:00,30.2657,74.9324,206.6,-330,4,-1,,,Orion,,,India
96569,Globe at Night,2012-01-14 02:30:00+00:00,30.2657,74.9324,206.6,-330,4,-1,,,Orion,,,India
96568,Globe at Night,2012-04-12 02:30:00+00:00,29.3659,78.1321,234.43,-330,5,-1,,,Orion,,,India
96567,Globe at Night,2012-04-23 02:30:00+00:00,29.3659,78.1321,234.43,-330,4,-1,,,Orion,,,India
96566,Globe at Night,2012-04-11 02:30:00+00:00,29.3659,78.1321,234.43,-330,3,-1,,,Orion,,,India
96565,Globe at Night,2012-04-21 02:30:00+00:00,29.3659,78.1321,234.43,-330,3,-1,,,Orion,,,India
96564,Globe at Night,2012-04-20 02:30:00+00:00,29.3659,78.1321,234.43,-330,3,-1,,,Orion,,,India
96563,Globe at Night,2012-04-19 02:30:00+00:00,29.3659,78.1321,234.43,-330,4,-1,,,Orion,,,India
96562,Globe at Night,2012-04-17 02:30:00+00:00,29.3659,78.1321,234.43,-330,3,-1,,,Orion,,,India
96561,Globe at Night,2012-04-18 02:30:00+00:00,29.3659,78.1321,234.43,-330,4,-1,,,Orion,,,India
96560,Globe at Night,2012-04-16 02:30:00+00:00,29.3659,78.1321,234.43,-330,3,-1,,,Orion,,,India
96559,Globe at Night,2012-04-15 02:30:00+00:00,29.3659,78.1321,234.43,-330,4,-1,,,Orion,,,India
96558,Globe at Night,2012-04-14 02:30:00+00:00,29.3659,78.1321,234.43,-330,3,-1,,,Orion,,,India
96557,Globe at Night,2012-03-24 02:30:00+00:00,29.3659,78.1321,234.43,-330,3,-1,,,Orion,,,India
96556,Globe at Night,2012-03-23 02:30:00+00:00,29.3659,78.1321,234.43,-330,4,-1,,,Orion,,,India
96555,Globe at Night,2012-03-22 02:30:00+00:00,29.3659,78.1321,234.43,-330,3,-1,,,Orion,,,India
96554,Globe at Night,2012-03-21 02:30:00+00:00,29.3659,78.1321,234.43,-330,3,-1,,,Orion,,,India
96553,Globe at Night,2012-03-20 02:30:00+00:00,29.3659,78.1321,234.43,-330,4,-1,,,Orion,,,India
96552,Globe at Night,2012-03-19 02:30:00+00:00,29.3659,78.1321,234.43,-330,3,-1,,,Orion,,,India
96551,Globe at Night,2012-03-18 02:30:00+00:00,29.3659,78.1321,234.43,-330,3,-1,,,Orion,,,India
96550,Globe at Night,2012-03-17 02:30:00+00:00,29.3659,78.1321,234.43,-330,3,-1,,,Orion,,,India
96549,Globe at Night,2012-03-16 02:30:00+00:00,29.3659,78.1321,234.43,-330,3,-1,,,Orion,,,India
96548,Globe at Night,2012-03-15 02:30:00+00:00,29.3659,78.1321,234.43,-330,4,-1,,,Orion,,,India
96547,Globe at Night,2012-03-14 02:30:00+00:00,29.3659,78.1321,234.43,-330,5,-1,,,Orion,,,India
96546,Globe at Night,2012-02-12 02:30:00+00:00,29.3659,78.1321,234.43,-330,4,-1,,,Orion,,,India
96545,Globe at Night,2012-02-13 02:30:00+00:00,29.3659,78.1321,234.43,-330,3,-1,,,Orion,,,India
96544,Globe at Night,2012-02-22 02:30:00+00:00,29.3659,78.1321,234.43,-330,3,-1,,,Orion,,,India
96543,Globe at Night,2012-02-21 02:30:00+00:00,29.3659,78.1321,234.43,-330,4,-1,,,Orion,,,India
96542,Globe at Night,2012-02-20 02:30:00+00:00,29.3659,78.1321,234.43,-330,5,-1,,,Orion,,,India
96541,Globe at Night,2012-02-19 02:30:00+00:00,29.3659,78.1321,234.43,-330,4,-1,,,Orion,,,India
96540,Globe at Night,2012-02-17 02:30:00+00:00,29.3659,78.1321,234.43,-330,4,-1,,,Orion,,,India
96539,Globe at Night,2012-02-18 02:30:00+00:00,29.3659,78.1321,234.43,-330,4,-1,,,Orion,,,India
96538,Globe at Night,2012-02-16 02:30:00+00:00,29.3659,78.1321,234.43,-330,3,-1,,,Orion,,,India
96537,Globe at Night,2012-02-15 02:30:00+00:00,29.3659,78.1321,234.43,-330,3,-1,,,Orion,,,India
96536,Globe at Night,2012-02-14 02:30:00+00:00,29.3659,78.1321,234.43,-330,4,-1,,,Orion,,,India
96535,Globe at Night,2012-01-23 02:30:00+00:00,29.3659,78.1321,234.43,-330,3,-1,,,Orion,,,India
96534,Globe at Night,2012-01-24 02:30:00+00:00,29.3659,78.1321,234.43,-330,3,-1,,,Orion,,,India
96533,Globe at Night,2012-01-22 02:30:00+00:00,29.3659,78.1321,234.43,-330,3,-1,,,Orion,,,India
96532,Globe at Night,2012-01-21 02:30:00+00:00,29.3659,78.1321,234.43,-330,4,-1,,,Orion,,,India
96531,Globe at Night,2012-01-20 02:30:00+00:00,29.3659,78.1321,234.43,-330,3,-1,,,Orion,,,India
96530,Globe at Night,2012-01-19 02:30:00+00:00,29.3659,78.1321,234.43,-330,3,-1,,,Orion,,,India
96529,Globe at Night,2012-01-17 02:30:00+00:00,29.3659,78.1321,234.43,-330,3,-1,,,Orion,,,India
96528,Globe at Night,2012-01-18 02:30:00+00:00,29.3659,78.1321,234.43,-330,3,-1,,,Orion,,,India
96527,Globe at Night,2012-01-16 02:30:00+00:00,29.3659,78.1321,234.43,-330,3,-1,,,Orion,,,India
96526,Globe at Night,2012-01-15 02:30:00+00:00,29.3659,78.1321,234.43,-330,3,-1,,,Orion,,,India
96525,Globe at Night,2012-01-14 02:30:00+00:00,29.3659,78.1321,234.43,-330,3,-1,,,Orion,,,India
96524,Globe at Night,2012-04-12 02:30:00+00:00,27.8423,79.9306,154.0,-330,4,-1,,,Orion,,,India
96523,Globe at Night,2012-04-23 02:30:00+00:00,27.8423,79.9306,154.0,-330,4,-1,,,Orion,,,India
96522,Globe at Night,2012-04-11 02:30:00+00:00,27.8423,79.9306,154.0,-330,4,-1,,,Orion,,,India
96521,Globe at Night,2012-04-21 02:30:00+00:00,27.8423,79.9306,154.0,-330,4,-1,,,Orion,,,India
96520,Globe at Night,2012-04-20 02:30:00+00:00,27.8423,79.9306,154.0,-330,4,-1,,,Orion,,,India
96519,Globe at Night,2012-04-19 02:30:00+00:00,27.8423,79.9306,154.0,-330,4,-1,,,Orion,,,India
96518,Globe at Night,2012-04-17 02:30:00+00:00,27.8423,79.9306,154.0,-330,4,-1,,,Orion,,,India
96517,Globe at Night,2012-04-18 02:30:00+00:00,27.8423,79.9306,154.0,-330,4,-1,,,Orion,,,India
96516,Globe at Night,2012-04-16 02:30:00+00:00,27.8423,79.9306,154.0,-330,5,-1,,,Orion,,,India
96515,Globe at Night,2012-04-15 02:30:00+00:00,27.8423,79.9306,154.0,-330,5,-1,,,Orion,,,India
96514,Globe at Night,2012-04-14 02:30:00+00:00,27.8423,79.9306,154.0,-330,5,-1,,,Orion,,,India
96513,Globe at Night,2012-03-24 02:30:00+00:00,27.8423,79.9306,154.0,-330,5,-1,,,Orion,,,India
96512,Globe at Night,2012-03-23 02:30:00+00:00,27.8423,79.9306,154.0,-330,4,-1,,,Orion,,,India
96511,Globe at Night,2012-03-22 02:30:00+00:00,27.8423,79.9306,154.0,-330,4,-1,,,Orion,,,India
96510,Globe at Night,2012-03-21 02:30:00+00:00,27.8423,79.9306,154.0,-330,4,-1,,,Orion,,,India
96509,Globe at Night,2012-03-20 02:30:00+00:00,27.8423,79.9306,154.0,-330,4,-1,,,Orion,,,India
96508,Globe at Night,2012-03-19 02:30:00+00:00,27.8423,79.9306,154.0,-330,4,-1,,,Orion,,,India
96507,Globe at Night,2012-03-18 02:30:00+00:00,27.8423,79.9306,154.0,-330,4,-1,,,Orion,,,India
96506,Globe at Night,2012-03-17 02:30:00+00:00,27.8423,79.9306,154.0,-330,4,-1,,,Orion,,,India
96505,Globe at Night,2012-03-16 02:30:00+00:00,27.8423,79.9306,154.0,-330,4,-1,,,Orion,,,India
96504,Globe at Night,2012-03-15 02:30:00+00:00,27.8423,79.9306,154.0,-330,4,-1,,,Orion,,,India
96503,Globe at Night,2012-03-14 02:30:00+00:00,27.8423,79.9306,154.0,-330,4,-1,,,Orion,,,India
96502,Globe at Night,2012-02-12 02:30:00+00:00,27.8423,79.9306,154.0,-330,4,-1,,,Orion,,,India
96501,Globe at Night,2012-02-13 02:30:00+00:00,27.8423,79.9306,154.0,-330,4,-1,,,Orion,,,India
96500,Globe at Night,2012-02-22 02:30:00+00:00,27.8423,79.9306,154.0,-330,3,-1,,,Orion,,,India
96499,Globe at Night,2012-02-21 02:30:00+00:00,27.8423,79.9306,154.0,-330,2,-1,,,Orion,,,India
96498,Globe at Night,2012-02-20 02:30:00+00:00,27.8423,79.9306,154.0,-330,2,-1,,,Orion,,,India
96497,Globe at Night,2012-02-19 02:30:00+00:00,27.8423,79.9306,154.0,-330,4,-1,,,Orion,,,India
96496,Globe at Night,2012-02-17 02:30:00+00:00,27.8423,79.9306,154.0,-330,3,-1,,,Orion,,,India
96495,Globe at Night,2012-02-18 02:30:00+00:00,27.8423,79.9306,154.0,-330,3,-1,,,Orion,,,India
96494,Globe at Night,2012-02-16 02:30:00+00:00,27.8423,79.9306,154.0,-330,3,-1,,,Orion,,,India
96493,Globe at Night,2012-02-15 02:30:00+00:00,27.8423,79.9306,154.0,-330,3,-1,,,Orion,,,India
96492,Globe at Night,2012-02-14 02:30:00+00:00,27.8423,79.9306,154.0,-330,5,-1,,,Orion,,,India
96491,Globe at Night,2012-01-23 02:30:00+00:00,27.8423,79.9306,154.0,-330,4,-1,,,Orion,,,India
96490,Globe at Night,2012-01-24 02:30:00+00:00,27.8423,79.9306,154.0,-330,4,-1,,,Orion,,,India
96489,Globe at Night,2012-01-22 02:30:00+00:00,27.8423,79.9306,154.0,-330,4,-1,,,Orion,,,India
96488,Globe at Night,2012-01-21 02:30:00+00:00,27.8423,79.9306,154.0,-330,4,-1,,,Orion,,,India
96487,Globe at Night,2012-01-20 02:30:00+00:00,27.8423,79.9306,154.0,-330,3,-1,,,Orion,,,India
96486,Globe at Night,2012-01-19 02:30:00+00:00,27.8423,79.9306,154.0,-330,3,-1,,,Orion,,,India
96485,Globe at Night,2012-01-17 02:30:00+00:00,27.8423,79.9306,154.0,-330,4,-1,,,Orion,,,India
96484,Globe at Night,2012-01-18 02:30:00+00:00,27.8423,79.9306,154.0,-330,3,-1,,,Orion,,,India
96483,Globe at Night,2012-01-16 02:30:00+00:00,27.8423,79.9306,154.0,-330,4,-1,,,Orion,,,India
96482,Globe at Night,2012-01-15 02:30:00+00:00,27.8423,79.9306,154.0,-330,4,-1,,,Orion,,,India
96481,Globe at Night,2012-01-14 02:30:00+00:00,27.8423,79.9306,154.0,-330,4,-1,,,Orion,,,India
96480,Globe at Night,2012-04-12 02:30:00+00:00,26.8414,80.9454,123.31,-330,2,-1,,,Orion,,,India
96479,Globe at Night,2012-04-23 02:30:00+00:00,26.8414,80.9454,123.31,-330,3,-1,,,Orion,,,India
96478,Globe at Night,2012-04-11 02:30:00+00:00,26.8414,80.9454,123.31,-330,3,-1,,,Orion,,,India
96477,Globe at Night,2012-04-21 02:30:00+00:00,26.8414,80.9454,123.31,-330,3,-1,,,Orion,,,India
96476,Globe at Night,2012-04-20 02:30:00+00:00,26.8414,80.9454,123.31,-330,2,-1,,,Orion,,,India
96475,Globe at Night,2012-04-19 02:30:00+00:00,26.8414,80.9454,123.31,-330,2,-1,,,Orion,,,India
96474,Globe at Night,2012-04-17 02:30:00+00:00,26.8414,80.9454,123.31,-330,3,-1,,,Orion,,,India
96473,Globe at Night,2012-04-18 02:30:00+00:00,26.8414,80.9454,123.31,-330,2,-1,,,Orion,,,India
96472,Globe at Night,2012-04-16 02:30:00+00:00,26.8414,80.9454,123.31,-330,2,-1,,,Orion,,,India
96471,Globe at Night,2012-04-15 02:30:00+00:00,26.8414,80.9454,123.31,-330,3,-1,,,Orion,,,India
96470,Globe at Night,2012-04-14 02:30:00+00:00,26.8414,80.9454,123.31,-330,3,-1,,,Orion,,,India
96469,Globe at Night,2012-03-24 02:30:00+00:00,26.8414,80.9454,123.31,-330,2,-1,,,Orion,,,India
96468,Globe at Night,2012-03-23 02:30:00+00:00,26.8414,80.9454,123.31,-330,2,-1,,,Orion,,,India
96467,Globe at Night,2012-03-22 02:30:00+00:00,26.8414,80.9454,123.31,-330,2,-1,,,Orion,,,India
96466,Globe at Night,2012-03-21 02:30:00+00:00,26.8414,80.9454,123.31,-330,2,-1,,,Orion,,,India
96465,Globe at Night,2012-03-20 02:30:00+00:00,26.8414,80.9454,123.31,-330,2,-1,,,Orion,,,India
96464,Globe at Night,2012-03-19 02:30:00+00:00,26.8414,80.9454,123.31,-330,1,-1,,,Orion,,,India
96463,Globe at Night,2012-03-18 02:30:00+00:00,26.8414,80.9454,123.31,-330,3,-1,,,Orion,,,India
96462,Globe at Night,2012-03-17 02:30:00+00:00,26.8414,80.9454,123.31,-330,3,-1,,,Orion,,,India
96461,Globe at Night,2012-03-16 02:30:00+00:00,26.8414,80.9454,123.31,-330,3,-1,,,Orion,,,India
96460,Globe at Night,2012-03-15 02:30:00+00:00,26.8414,80.9454,123.31,-330,2,-1,,,Orion,,,India
96459,Globe at Night,2012-03-14 02:30:00+00:00,26.8414,80.9454,123.31,-330,2,-1,,,Orion,,,India
96458,Globe at Night,2012-02-12 02:30:00+00:00,26.8414,80.9454,123.31,-330,2,-1,,,Orion,,,India
96457,Globe at Night,2012-02-13 02:30:00+00:00,26.8414,80.9454,123.31,-330,2,-1,,,Orion,,,India
96456,Globe at Night,2012-02-22 02:30:00+00:00,26.8414,80.9454,123.31,-330,2,-1,,,Orion,,,India
96455,Globe at Night,2012-02-21 02:30:00+00:00,26.8414,80.9454,123.31,-330,4,-1,,,Orion,,,India
96454,Globe at Night,2012-02-20 02:30:00+00:00,26.8414,80.9454,123.31,-330,4,-1,,,Orion,,,India
96453,Globe at Night,2012-02-19 02:30:00+00:00,26.8414,80.9454,123.31,-330,2,-1,,,Orion,,,India
96452,Globe at Night,2012-02-17 02:30:00+00:00,26.8414,80.9454,123.31,-330,2,-1,,,Orion,,,India
96451,Globe at Night,2012-02-18 02:30:00+00:00,26.8414,80.9454,123.31,-330,3,-1,,,Orion,,,India
96450,Globe at Night,2012-02-16 02:30:00+00:00,26.8414,80.9454,123.31,-330,3,-1,,,Orion,,,India
96449,Globe at Night,2012-02-15 02:30:00+00:00,26.8414,80.9454,123.31,-330,3,-1,,,Orion,,,India
96448,Globe at Night,2012-02-14 02:30:00+00:00,26.8414,80.9454,123.31,-330,3,-1,,,Orion,,,India
96447,Globe at Night,2012-01-23 02:30:00+00:00,26.8414,80.9454,123.31,-330,2,-1,,,Orion,,,India
96446,Globe at Night,2012-01-24 02:30:00+00:00,26.8414,80.9454,123.31,-330,2,-1,,,Orion,,,India
96445,Globe at Night,2012-01-22 02:30:00+00:00,26.8414,80.9454,123.31,-330,3,-1,,,Orion,,,India
96444,Globe at Night,2012-01-21 02:30:00+00:00,26.8414,80.9454,123.31,-330,2,-1,,,Orion,,,India
96443,Globe at Night,2012-01-20 02:30:00+00:00,26.8414,80.9454,123.31,-330,2,-1,,,Orion,,,India
96442,Globe at Night,2012-01-19 02:30:00+00:00,26.8414,80.9454,123.31,-330,3,-1,,,Orion,,,India
96441,Globe at Night,2012-01-17 02:30:00+00:00,26.8414,80.9454,123.31,-330,3,-1,,,Orion,,,India
96440,Globe at Night,2012-01-18 02:30:00+00:00,26.8414,80.9454,123.31,-330,3,-1,,,Orion,,,India
96439,Globe at Night,2012-01-16 02:30:00+00:00,26.8414,80.9454,123.31,-330,2,-1,,,Orion,,,India
96438,Globe at Night,2012-01-15 02:30:00+00:00,26.8414,80.9454,123.31,-330,2,-1,,,Orion,,,India
96437,Globe at Night,2012-01-14 02:30:00+00:00,26.8414,80.9454,123.31,-330,3,-1,,,Orion,,,India
96436,Globe at Night,2012-04-12 02:30:00+00:00,28.6443,77.3207,207.29,-330,2,-1,,,Orion,,,India
96435,Globe at Night,2012-04-23 02:30:00+00:00,28.6443,77.3207,207.29,-330,2,-1,,,Orion,,,India
96434,Globe at Night,2012-04-12 02:30:00+00:00,28.6443,77.3207,207.29,-330,2,-1,,,Orion,,,India
96433,Globe at Night,2012-04-23 02:30:00+00:00,28.6443,77.3207,207.29,-330,2,-1,,,Orion,,,India
96432,Globe at Night,2012-04-12 02:30:00+00:00,28.6443,77.3207,207.29,-330,2,-1,,,Orion,,,India
96431,Globe at Night,2012-04-23 02:30:00+00:00,28.6443,77.3207,207.29,-330,2,-1,,,Orion,,,India
96430,Globe at Night,2012-04-11 02:30:00+00:00,28.6443,77.3207,207.29,-330,2,-1,,,Orion,,,India
96429,Globe at Night,2012-04-21 02:30:00+00:00,28.6443,77.3207,207.29,-330,3,-1,,,Orion,,,India
96428,Globe at Night,2012-04-20 02:30:00+00:00,28.6443,77.3207,207.29,-330,3,-1,,,Orion,,,India
96427,Globe at Night,2012-04-19 02:30:00+00:00,28.6443,77.3207,207.29,-330,3,-1,,,Orion,,,India
96426,Globe at Night,2012-04-17 02:30:00+00:00,28.6443,77.3207,207.29,-330,3,-1,,,Orion,,,India
96425,Globe at Night,2012-04-18 02:30:00+00:00,28.6443,77.3207,207.29,-330,3,-1,,,Orion,,,India
96424,Globe at Night,2012-04-16 02:30:00+00:00,28.6443,77.3207,207.29,-330,3,-1,,,Orion,,,India
96423,Globe at Night,2012-04-15 02:30:00+00:00,28.6443,77.3207,207.29,-330,3,-1,,,Orion,,,India
96422,Globe at Night,2012-04-14 02:30:00+00:00,28.6443,77.3207,207.29,-330,3,-1,,,Orion,,,India
96421,Globe at Night,2012-04-12 02:30:00+00:00,28.6412,77.3006,206.21,-330,2,-1,,,Orion,,,India
96420,Globe at Night,2012-04-23 02:30:00+00:00,28.6412,77.3006,206.21,-330,3,-1,,,Orion,,,India
96419,Globe at Night,2012-04-11 02:30:00+00:00,28.6412,77.3006,206.21,-330,3,-1,,,Orion,,,India
96418,Globe at Night,2012-04-21 02:30:00+00:00,28.6412,77.3006,206.21,-330,3,-1,,,Orion,,,India
96417,Globe at Night,2012-04-20 02:30:00+00:00,28.6412,77.3006,206.21,-330,3,-1,,,Orion,,,India
96416,Globe at Night,2012-04-19 02:30:00+00:00,28.6412,77.3006,206.21,-330,2,-1,,,Orion,,,India
96415,Globe at Night,2012-04-17 02:30:00+00:00,28.6412,77.3006,206.21,-330,3,-1,,,Orion,,,India
96414,Globe at Night,2012-04-18 02:30:00+00:00,28.6412,77.3006,206.21,-330,2,-1,,,Orion,,,India
96413,Globe at Night,2012-04-16 02:30:00+00:00,28.6412,77.3006,206.21,-330,2,-1,,,Orion,,,India
96412,Globe at Night,2012-04-15 02:30:00+00:00,28.6412,77.3006,206.21,-330,2,-1,,,Orion,,,India
96411,Globe at Night,2012-04-14 02:30:00+00:00,28.6412,77.3006,206.21,-330,3,-1,,,Orion,,,India
96410,Globe at Night,2012-04-12 02:30:00+00:00,28.6384,77.2833,210.0,-330,3,-1,,,Orion,,,India
96409,Globe at Night,2012-04-23 02:30:00+00:00,28.6384,77.2833,210.0,-330,3,-1,,,Orion,,,India
96408,Globe at Night,2012-04-11 02:30:00+00:00,28.6384,77.2833,210.0,-330,2,-1,,,Orion,,,India
96407,Globe at Night,2012-04-21 02:30:00+00:00,28.6384,77.2833,210.0,-330,2,-1,,,Orion,,,India
96406,Globe at Night,2012-04-20 02:30:00+00:00,28.6384,77.2833,210.0,-330,2,-1,,,Orion,,,India
96405,Globe at Night,2012-04-19 02:30:00+00:00,28.6384,77.2833,210.0,-330,2,-1,,,Orion,,,India
96404,Globe at Night,2012-04-17 02:30:00+00:00,28.6384,77.2833,210.0,-330,2,-1,,,Orion,,,India
96403,Globe at Night,2012-04-18 02:30:00+00:00,28.6384,77.2833,210.0,-330,2,-1,,,Orion,,,India
96402,Globe at Night,2012-04-16 02:30:00+00:00,28.6384,77.2833,210.0,-330,2,-1,,,Orion,,,India
96401,Globe at Night,2012-04-15 02:30:00+00:00,28.6384,77.2833,210.0,-330,2,-1,,,Orion,,,India
96400,Globe at Night,2012-04-14 02:30:00+00:00,28.6384,77.2833,210.0,-330,3,-1,,,Orion,,,India
96399,Globe at Night,2012-04-12 02:30:00+00:00,28.6387,77.2353,217.89,-330,2,-1,,,Orion,,,India
96398,Globe at Night,2012-04-23 02:30:00+00:00,28.6387,77.2353,217.89,-330,2,-1,,,Orion,,,India
96397,Globe at Night,2012-04-11 02:30:00+00:00,28.6387,77.2353,217.89,-330,2,-1,,,Orion,,,India
96396,Globe at Night,2012-04-21 02:30:00+00:00,28.6387,77.2353,217.89,-330,2,-1,,,Orion,,,India
96395,Globe at Night,2012-04-20 02:30:00+00:00,28.6387,77.2353,217.89,-330,2,-1,,,Orion,,,India
96394,Globe at Night,2012-04-19 02:30:00+00:00,28.6387,77.2353,217.89,-330,2,-1,,,Orion,,,India
96393,Globe at Night,2012-04-17 02:30:00+00:00,28.6387,77.2353,217.89,-330,3,-1,,,Orion,,,India
96392,Globe at Night,2012-04-18 02:30:00+00:00,28.6387,77.2353,217.89,-330,3,-1,,,Orion,,,India
96391,Globe at Night,2012-04-16 02:30:00+00:00,28.6387,77.2353,217.89,-330,2,-1,,,Orion,,,India
96390,Globe at Night,2012-04-15 02:30:00+00:00,28.6387,77.2353,217.89,-330,2,-1,,,Orion,,,India
